$GPRMC,111719.500,A,4635.0511,N,00018.5462,E,20.80,354.00,260910,,*31
$GPGGA,111719.500,4635.0511,N,00018.5462,E,1,7,227,127.70,M,127.70,M,,*44
$GPVTG,0.000,T,0,M,20.80,N,38.50,K*54
$GPRMC,111719.750,A,4635.0521,N,00018.5455,E,23.15,348.70,260910,,*34
$GPGGA,111719.750,4635.0521,N,00018.5455,E,1,7,227,128.66,M,128.66,M,,*44
$GPVTG,0.000,T,0,M,23.15,N,42.86,K*5d
$GPRMC,111720.000,A,4635.0535,N,00018.5446,E,25.68,346.10,260910,,*3f
$GPGGA,111720.000,4635.0535,N,00018.5446,E,1,7,227,129.36,M,129.36,M,,*4b
$GPVTG,0.000,T,0,M,25.68,N,47.53,K*5c
$GPRMC,111720.250,A,4635.0555,N,00018.5437,E,27.78,343.40,260910,,*3b
$GPGGA,111720.250,4635.0555,N,00018.5437,E,1,7,227,130.04,M,130.04,M,,*4c
$GPVTG,0.000,T,0,M,27.78,N,51.42,K*58
$GPRMC,111720.500,A,4635.0572,N,00018.5426,E,29.51,341.10,260910,,*3e
$GPGGA,111720.500,4635.0572,N,00018.5426,E,1,7,227,131.06,M,131.06,M,,*4b
$GPVTG,0.000,T,0,M,29.51,N,54.62,K*5a
$GPRMC,111720.750,A,4635.0593,N,00018.5413,E,31.24,338.70,260910,,*33
$GPGGA,111720.750,4635.0593,N,00018.5413,E,1,7,227,132.21,M,132.21,M,,*45
$GPVTG,0.000,T,0,M,31.24,N,57.82,K*5c
$GPRMC,111721.000,A,4635.0612,N,00018.5398,E,33.73,337.40,260910,,*32
$GPGGA,111721.000,4635.0612,N,00018.5398,E,1,7,227,133.76,M,133.76,M,,*48
$GPVTG,0.000,T,0,M,33.73,N,62.43,K*57
$GPRMC,111721.250,A,4635.0630,N,00018.5382,E,33.55,335.20,260910,,*3e
$GPGGA,111721.250,4635.0630,N,00018.5382,E,1,7,227,135.29,M,135.29,M,,*44
$GPVTG,0.000,T,0,M,33.55,N,62.11,K*54
$GPRMC,111721.500,A,4635.0652,N,00018.5365,E,32.29,332.80,260910,,*36
$GPGGA,111721.500,4635.0652,N,00018.5365,E,1,7,227,137.20,M,137.20,M,,*4b
$GPVTG,0.000,T,0,M,32.29,N,59.77,K*56
$GPRMC,111721.750,A,4635.0671,N,00018.5345,E,33.41,329.90,260910,,*36
$GPGGA,111721.750,4635.0671,N,00018.5345,E,1,7,227,139.21,M,139.21,M,,*4f
$GPVTG,0.000,T,0,M,33.41,N,61.85,K*5f
$GPRMC,111722.000,A,4635.0686,N,00018.5324,E,32.87,326.90,260910,,*3c
$GPGGA,111722.000,4635.0686,N,00018.5324,E,1,7,227,141.20,M,141.20,M,,*41
$GPVTG,0.000,T,0,M,32.87,N,60.85,K*55
$GPRMC,111722.250,A,4635.0704,N,00018.5300,E,34.79,324.20,260910,,*38
$GPGGA,111722.250,4635.0704,N,00018.5300,E,1,7,227,143.06,M,143.06,M,,*4b
$GPVTG,0.000,T,0,M,34.79,N,64.41,K*5e
$GPRMC,111722.500,A,4635.0723,N,00018.5276,E,34.35,322.20,260910,,*31
$GPGGA,111722.500,4635.0723,N,00018.5276,E,1,7,227,144.98,M,144.98,M,,*4c
$GPVTG,0.000,T,0,M,34.35,N,63.58,K*59
$GPRMC,111722.750,A,4635.0741,N,00018.5252,E,34.95,320.30,260910,,*3d
$GPGGA,111722.750,4635.0741,N,00018.5252,E,1,7,227,146.73,M,146.73,M,,*49
$GPVTG,0.000,T,0,M,34.95,N,64.70,K*5e
$GPRMC,111723.000,A,4635.0760,N,00018.5224,E,36.41,318.50,260910,,*3a
$GPGGA,111723.000,4635.0760,N,00018.5224,E,1,7,227,148.44,M,148.44,M,,*48
$GPVTG,0.000,T,0,M,36.41,N,67.40,K*55
$GPRMC,111723.250,A,4635.0778,N,00018.5195,E,36.95,317.10,260910,,*3f
$GPGGA,111723.250,4635.0778,N,00018.5195,E,1,7,227,150.17,M,150.17,M,,*4f
$GPVTG,0.000,T,0,M,36.95,N,68.40,K*53
$GPRMC,111723.500,A,4635.0793,N,00018.5167,E,35.26,314.70,260910,,*3b
$GPGGA,111723.500,4635.0793,N,00018.5167,E,1,7,227,152.27,M,152.27,M,,*45
$GPVTG,0.000,T,0,M,35.26,N,65.27,K*54
$GPRMC,111723.750,A,4635.0811,N,00018.5136,E,37.52,313.60,260910,,*3a
$GPGGA,111723.750,4635.0811,N,00018.5136,E,1,7,227,154.09,M,154.09,M,,*43
$GPVTG,0.000,T,0,M,37.52,N,69.45,K*5d
$GPRMC,111724.000,A,4635.0829,N,00018.5102,E,38.70,312.90,260910,,*32
$GPGGA,111724.000,4635.0829,N,00018.5102,E,1,7,227,155.45,M,155.45,M,,*4a
$GPVTG,0.000,T,0,M,38.70,N,71.64,K*58
$GPRMC,111724.250,A,4635.0842,N,00018.5069,E,36.33,309.00,260910,,*3e
$GPGGA,111724.250,4635.0842,N,00018.5069,E,1,7,227,156.63,M,156.63,M,,*4c
$GPVTG,0.000,T,0,M,36.33,N,67.25,K*53
$GPRMC,111724.500,A,4635.0852,N,00018.5035,E,34.23,304.60,260910,,*3c
$GPGGA,111724.500,4635.0852,N,00018.5035,E,1,7,227,158.47,M,158.47,M,,*46
$GPVTG,0.000,T,0,M,34.23,N,63.37,K*57
$GPRMC,111724.750,A,4635.0860,N,00018.5000,E,33.90,299.70,260910,,*37
$GPGGA,111724.750,4635.0860,N,00018.5000,E,1,7,227,160.43,M,160.43,M,,*46
$GPVTG,0.000,T,0,M,33.90,N,62.75,K*5f
$GPRMC,111725.000,A,4635.0864,N,00018.4965,E,33.38,295.30,260910,,*31
$GPGGA,111725.000,4635.0864,N,00018.4965,E,1,7,227,162.25,M,162.25,M,,*4a
$GPVTG,0.000,T,0,M,33.38,N,61.78,K*53
$GPRMC,111725.250,A,4635.0865,N,00018.4931,E,32.00,290.70,260910,,*3d
$GPGGA,111725.250,4635.0865,N,00018.4931,E,1,7,227,163.93,M,163.93,M,,*4d
$GPVTG,0.000,T,0,M,32.00,N,59.23,K*5c
$GPRMC,111725.500,A,4635.0864,N,00018.4897,E,31.49,285.60,260910,,*38
$GPGGA,111725.500,4635.0864,N,00018.4897,E,1,7,227,165.65,M,165.65,M,,*43
$GPVTG,0.000,T,0,M,31.49,N,58.29,K*59
$GPRMC,111725.750,A,4635.0862,N,00018.4865,E,30.77,279.60,260910,,*3b
$GPGGA,111725.750,4635.0862,N,00018.4865,E,1,7,227,167.23,M,167.23,M,,*4f
$GPVTG,0.000,T,0,M,30.77,N,56.96,K*5f
$GPRMC,111726.000,A,4635.0856,N,00018.4835,E,30.69,272.80,260910,,*32
$GPGGA,111726.000,4635.0856,N,00018.4835,E,1,7,227,168.55,M,168.55,M,,*4c
$GPVTG,0.000,T,0,M,30.69,N,56.82,K*55
$GPRMC,111726.250,A,4635.0845,N,00018.4808,E,30.09,267.00,260910,,*33
$GPGGA,111726.250,4635.0845,N,00018.4808,E,1,7,227,169.84,M,169.84,M,,*47
$GPVTG,0.000,T,0,M,30.09,N,55.70,K*5d
$GPRMC,111726.500,A,4635.0836,N,00018.4787,E,29.53,261.60,260910,,*3a
$GPGGA,111726.500,4635.0836,N,00018.4787,E,1,7,227,171.13,M,171.13,M,,*49
$GPVTG,0.000,T,0,M,29.53,N,54.66,K*5c
$GPRMC,111726.750,A,4635.0816,N,00018.4770,E,30.36,252.90,260910,,*33
$GPGGA,111726.750,4635.0816,N,00018.4770,E,1,7,227,172.59,M,172.59,M,,*44
$GPVTG,0.000,T,0,M,30.36,N,56.21,K*56
$GPRMC,111727.000,A,4635.0799,N,00018.4757,E,29.92,243.80,260910,,*3a
$GPGGA,111727.000,4635.0799,N,00018.4757,E,1,7,227,174.02,M,174.02,M,,*4a
$GPVTG,0.000,T,0,M,29.92,N,55.38,K*5b
$GPRMC,111727.250,A,4635.0774,N,00018.4747,E,29.90,233.30,260910,,*31
$GPGGA,111727.250,4635.0774,N,00018.4747,E,1,7,227,175.27,M,175.27,M,,*4f
$GPVTG,0.000,T,0,M,29.90,N,55.34,K*55
$GPRMC,111727.500,A,4635.0758,N,00018.4737,E,31.32,222.30,260910,,*3b
$GPGGA,111727.500,4635.0758,N,00018.4737,E,1,7,227,176.08,M,176.08,M,,*44
$GPVTG,0.000,T,0,M,31.32,N,57.97,K*5f
$GPRMC,111727.750,A,4635.0734,N,00018.4731,E,31.70,213.50,260910,,*32
$GPGGA,111727.750,4635.0734,N,00018.4731,E,1,7,227,176.95,M,176.95,M,,*4f
$GPVTG,0.000,T,0,M,31.70,N,58.69,K*57
$GPRMC,111728.000,A,4635.0710,N,00018.4726,E,32.42,207.00,260910,,*3d
$GPGGA,111728.000,4635.0710,N,00018.4726,E,1,7,227,177.45,M,177.45,M,,*42
$GPVTG,0.000,T,0,M,32.42,N,60.02,K*53
$GPRMC,111728.250,A,4635.0687,N,00018.4719,E,32.15,200.80,260910,,*34
$GPGGA,111728.250,4635.0687,N,00018.4719,E,1,7,227,177.76,M,177.76,M,,*46
$GPVTG,0.000,T,0,M,32.15,N,59.52,K*5e
$GPRMC,111728.500,A,4635.0661,N,00018.4711,E,32.60,194.40,260910,,*36
$GPGGA,111728.500,4635.0661,N,00018.4711,E,1,7,227,177.99,M,177.99,M,,*44
$GPVTG,0.000,T,0,M,32.60,N,60.34,K*56
$GPRMC,111728.750,A,4635.0637,N,00018.4706,E,34.11,189.20,260910,,*3e
$GPGGA,111728.750,4635.0637,N,00018.4706,E,1,7,227,178.24,M,178.24,M,,*46
$GPVTG,0.000,T,0,M,34.11,N,63.15,K*56
$GPRMC,111729.000,A,4635.0607,N,00018.4703,E,33.96,186.10,260910,,*3f
$GPGGA,111729.000,4635.0607,N,00018.4703,E,1,7,227,178.39,M,178.39,M,,*43
$GPVTG,0.000,T,0,M,33.96,N,62.86,K*55
$GPRMC,111729.250,A,4635.0580,N,00018.4700,E,33.63,185.70,260910,,*38
$GPGGA,111729.250,4635.0580,N,00018.4700,E,1,7,227,178.80,M,178.80,M,,*4b
$GPVTG,0.000,T,0,M,33.63,N,62.25,K*56
$GPRMC,111729.500,A,4635.0555,N,00018.4695,E,33.75,186.10,260910,,*3d
$GPGGA,111729.500,4635.0555,N,00018.4695,E,1,7,227,179.07,M,179.07,M,,*4c
$GPVTG,0.000,T,0,M,33.75,N,62.47,K*55
$GPRMC,111729.750,A,4635.0533,N,00018.4691,E,33.36,187.10,260910,,*38
$GPGGA,111729.750,4635.0533,N,00018.4691,E,1,7,227,179.30,M,179.30,M,,*4f
$GPVTG,0.000,T,0,M,33.36,N,61.75,K*50
$GPRMC,111730.000,A,4635.0508,N,00018.4683,E,33.88,189.50,260910,,*36
$GPGGA,111730.000,4635.0508,N,00018.4683,E,1,7,227,179.47,M,179.47,M,,*4e
$GPVTG,0.000,T,0,M,33.88,N,62.72,K*51
$GPRMC,111730.250,A,4635.0493,N,00018.4673,E,33.53,192.80,260910,,*3c
$GPGGA,111730.250,4635.0493,N,00018.4673,E,1,7,227,179.56,M,179.56,M,,*45
$GPVTG,0.000,T,0,M,33.53,N,62.07,K*55
$GPRMC,111730.500,A,4635.0473,N,00018.4661,E,31.94,197.30,260910,,*34
$GPGGA,111730.500,4635.0473,N,00018.4661,E,1,7,227,179.70,M,179.70,M,,*4a
$GPVTG,0.000,T,0,M,31.94,N,59.12,K*50
$GPRMC,111730.750,A,4635.0457,N,00018.4644,E,31.47,202.50,260910,,*35
$GPGGA,111730.750,4635.0457,N,00018.4644,E,1,7,227,179.93,M,179.93,M,,*4c
$GPVTG,0.000,T,0,M,31.47,N,58.26,K*58
$GPRMC,111731.000,A,4635.0443,N,00018.4624,E,30.65,208.10,260910,,*3a
$GPGGA,111731.000,4635.0443,N,00018.4624,E,1,7,227,180.27,M,180.27,M,,*4c
$GPVTG,0.000,T,0,M,30.65,N,56.74,K*50
$GPRMC,111731.250,A,4635.0432,N,00018.4602,E,29.04,214.50,260910,,*39
$GPGGA,111731.250,4635.0432,N,00018.4602,E,1,7,227,180.62,M,180.62,M,,*49
$GPVTG,0.000,T,0,M,29.04,N,53.76,K*58
$GPRMC,111731.500,A,4635.0428,N,00018.4579,E,27.19,221.50,260910,,*3b
$GPGGA,111731.500,4635.0428,N,00018.4579,E,1,7,227,181.06,M,181.06,M,,*4f
$GPVTG,0.000,T,0,M,27.19,N,50.34,K*5f
$GPRMC,111731.750,A,4635.0424,N,00018.4555,E,25.54,228.80,260910,,*31
$GPGGA,111731.750,4635.0424,N,00018.4555,E,1,7,227,181.78,M,181.78,M,,*4a
$GPVTG,0.000,T,0,M,25.54,N,47.28,K*5f
$GPRMC,111732.000,A,4635.0422,N,00018.4530,E,24.69,235.20,260910,,*3c
$GPGGA,111732.000,4635.0422,N,00018.4530,E,1,7,227,182.52,M,182.52,M,,*4e
$GPVTG,0.000,T,0,M,24.69,N,45.70,K*5f
$GPRMC,111732.250,A,4635.0421,N,00018.4505,E,23.91,242.40,260910,,*38
$GPGGA,111732.250,4635.0421,N,00018.4505,E,1,7,227,183.21,M,183.21,M,,*4c
$GPVTG,0.000,T,0,M,23.91,N,44.26,K*5d
$GPRMC,111732.500,A,4635.0421,N,00018.4478,E,24.18,249.30,260910,,*3b
$GPGGA,111732.500,4635.0421,N,00018.4478,E,1,7,227,183.37,M,183.37,M,,*45
$GPVTG,0.000,T,0,M,24.18,N,44.76,K*5e
$GPRMC,111732.750,A,4635.0417,N,00018.4452,E,23.85,255.40,260910,,*38
$GPGGA,111732.750,4635.0417,N,00018.4452,E,1,7,227,183.41,M,183.41,M,,*4f
$GPVTG,0.000,T,0,M,23.85,N,44.15,K*58
$GPRMC,111733.000,A,4635.0416,N,00018.4428,E,23.50,260.50,260910,,*38
$GPGGA,111733.000,4635.0416,N,00018.4428,E,1,7,227,183.70,M,183.70,M,,*40
$GPVTG,0.000,T,0,M,23.50,N,43.50,K*56
$GPRMC,111733.250,A,4635.0415,N,00018.4407,E,23.03,264.40,260910,,*32
$GPGGA,111733.250,4635.0415,N,00018.4407,E,1,7,227,183.42,M,183.42,M,,*49
$GPVTG,0.000,T,0,M,23.03,N,42.64,K*56
$GPRMC,111733.500,A,4635.0420,N,00018.4384,E,22.92,268.00,260910,,*3b
$GPGGA,111733.500,4635.0420,N,00018.4384,E,1,7,227,183.72,M,183.72,M,,*41
$GPVTG,0.000,T,0,M,22.92,N,42.42,K*5b
$GPRMC,111733.750,A,4635.0423,N,00018.4359,E,23.27,271.10,260910,,*39
$GPGGA,111733.750,4635.0423,N,00018.4359,E,1,7,227,184.07,M,184.07,M,,*45
$GPVTG,0.000,T,0,M,23.27,N,43.07,K*54
$GPRMC,111734.000,A,4635.0426,N,00018.4334,E,23.40,273.70,260910,,*37
$GPGGA,111734.000,4635.0426,N,00018.4334,E,1,7,227,184.40,M,184.40,M,,*4e
$GPVTG,0.000,T,0,M,23.40,N,43.32,K*53
$GPRMC,111734.250,A,4635.0427,N,00018.4310,E,23.02,275.50,260910,,*35
$GPGGA,111734.250,4635.0427,N,00018.4310,E,1,7,227,184.27,M,184.27,M,,*4e
$GPVTG,0.000,T,0,M,23.02,N,42.60,K*53
$GPRMC,111734.500,A,4635.0432,N,00018.4286,E,22.61,277.10,260910,,*3f
$GPGGA,111734.500,4635.0432,N,00018.4286,E,1,7,227,184.75,M,184.75,M,,*46
$GPVTG,0.000,T,0,M,22.61,N,41.85,K*5f
$GPRMC,111734.750,A,4635.0440,N,00018.4260,E,21.95,278.70,260910,,*34
$GPGGA,111734.750,4635.0440,N,00018.4260,E,1,7,227,185.46,M,185.46,M,,*4c
$GPVTG,0.000,T,0,M,21.95,N,40.62,K*5f
$GPRMC,111735.000,A,4635.0439,N,00018.4240,E,21.87,279.60,260910,,*38
$GPGGA,111735.000,4635.0439,N,00018.4240,E,1,7,227,185.90,M,185.90,M,,*43
$GPVTG,0.000,T,0,M,21.87,N,40.48,K*54
$GPRMC,111735.250,A,4635.0447,N,00018.4216,E,21.25,280.40,260910,,*39
$GPGGA,111735.250,4635.0447,N,00018.4216,E,1,7,227,186.25,M,186.25,M,,*4e
$GPVTG,0.000,T,0,M,21.25,N,39.33,K*5e
$GPRMC,111735.500,A,4635.0447,N,00018.4200,E,20.97,281.00,260910,,*31
$GPGGA,111735.500,4635.0447,N,00018.4200,E,1,7,227,186.68,M,186.68,M,,*4b
$GPVTG,0.000,T,0,M,20.97,N,38.83,K*5c
$GPRMC,111735.750,A,4635.0448,N,00018.4178,E,20.97,281.20,260910,,*37
$GPGGA,111735.750,4635.0448,N,00018.4178,E,1,7,227,186.90,M,186.90,M,,*4f
$GPVTG,0.000,T,0,M,20.97,N,38.83,K*5c
$GPRMC,111736.000,A,4635.0453,N,00018.4157,E,21.32,281.50,260910,,*38
$GPGGA,111736.000,4635.0453,N,00018.4157,E,1,7,227,187.03,M,187.03,M,,*49
$GPVTG,0.000,T,0,M,21.32,N,39.47,K*5b
$GPRMC,111736.250,A,4635.0457,N,00018.4134,E,19.77,281.70,260910,,*36
$GPGGA,111736.250,4635.0457,N,00018.4134,E,1,7,227,187.33,M,187.33,M,,*4f
$GPVTG,0.000,T,0,M,19.77,N,36.59,K*51
$GPRMC,111736.500,A,4635.0464,N,00018.4112,E,19.21,282.10,260910,,*36
$GPGGA,111736.500,4635.0464,N,00018.4112,E,1,7,227,187.47,M,187.47,M,,*49
$GPVTG,0.000,T,0,M,19.21,N,35.55,K*5d
$GPRMC,111736.750,A,4635.0463,N,00018.4095,E,19.28,282.70,260910,,*37
$GPGGA,111736.750,4635.0463,N,00018.4095,E,1,7,227,187.06,M,187.06,M,,*47
$GPVTG,0.000,T,0,M,19.28,N,35.69,K*5b
$GPRMC,111737.000,A,4635.0468,N,00018.4075,E,19.50,283.20,260910,,*3a
$GPGGA,111737.000,4635.0468,N,00018.4075,E,1,7,227,187.12,M,187.12,M,,*41
$GPVTG,0.000,T,0,M,19.50,N,36.09,K*51
$GPRMC,111737.250,A,4635.0473,N,00018.4059,E,18.68,283.80,260910,,*39
$GPGGA,111737.250,4635.0473,N,00018.4059,E,1,7,227,187.39,M,187.39,M,,*42
$GPVTG,0.000,T,0,M,18.68,N,34.58,K*5d
$GPRMC,111737.500,A,4635.0478,N,00018.4040,E,19.26,284.70,260910,,*3b
$GPGGA,111737.500,4635.0478,N,00018.4040,E,1,7,227,187.69,M,187.69,M,,*43
$GPVTG,0.000,T,0,M,19.26,N,35.66,K*5a
$GPRMC,111737.750,A,4635.0486,N,00018.4023,E,18.72,285.30,260910,,*3d
$GPGGA,111737.750,4635.0486,N,00018.4023,E,1,7,227,187.52,M,187.52,M,,*40
$GPVTG,0.000,T,0,M,18.72,N,34.65,K*58
$GPRMC,111738.000,A,4635.0491,N,00018.4007,E,19.03,286.60,260910,,*31
$GPGGA,111738.000,4635.0491,N,00018.4007,E,1,7,227,187.93,M,187.93,M,,*4d
$GPVTG,0.000,T,0,M,19.03,N,35.23,K*5c
$GPRMC,111738.250,A,4635.0492,N,00018.3991,E,19.11,288.20,260910,,*3d
$GPGGA,111738.250,4635.0492,N,00018.3991,E,1,7,226,188.24,M,188.24,M,,*49
$GPVTG,0.000,T,0,M,19.11,N,35.37,K*5a
$GPRMC,111738.500,A,4635.0500,N,00018.3975,E,19.11,289.70,260910,,*3b
$GPGGA,111738.500,4635.0500,N,00018.3975,E,1,7,226,188.20,M,188.20,M,,*4b
$GPVTG,0.000,T,0,M,19.11,N,35.37,K*5a
$GPRMC,111738.750,A,4635.0503,N,00018.3960,E,19.05,291.20,260910,,*32
$GPGGA,111738.750,4635.0503,N,00018.3960,E,1,7,226,188.53,M,188.53,M,,*4b
$GPVTG,0.000,T,0,M,19.05,N,35.26,K*5f
$GPRMC,111739.000,A,4635.0508,N,00018.3945,E,19.05,292.80,260910,,*34
$GPGGA,111739.000,4635.0508,N,00018.3945,E,1,7,226,188.85,M,188.85,M,,*44
$GPVTG,0.000,T,0,M,19.05,N,35.26,K*5f
$GPRMC,111739.250,A,4635.0515,N,00018.3927,E,19.24,294.70,260910,,*31
$GPGGA,111739.250,4635.0515,N,00018.3927,E,1,7,226,189.03,M,189.03,M,,*4b
$GPVTG,0.000,T,0,M,19.24,N,35.62,K*5c
$GPRMC,111739.500,A,4635.0520,N,00018.3911,E,19.11,296.50,260910,,*36
$GPGGA,111739.500,4635.0520,N,00018.3911,E,1,7,226,189.20,M,189.20,M,,*4a
$GPVTG,0.000,T,0,M,19.11,N,35.37,K*5a
$GPRMC,111739.750,A,4635.0526,N,00018.3895,E,18.95,298.40,260910,,*38
$GPGGA,111739.750,4635.0526,N,00018.3895,E,1,7,226,189.40,M,189.40,M,,*46
$GPVTG,0.000,T,0,M,18.95,N,35.08,K*5b
$GPRMC,111740.000,A,4635.0533,N,00018.3879,E,18.91,300.30,260910,,*31
$GPGGA,111740.000,4635.0533,N,00018.3879,E,1,7,226,189.58,M,189.58,M,,*4c
$GPVTG,0.000,T,0,M,18.91,N,35.01,K*56
$GPRMC,111740.250,A,4635.0541,N,00018.3865,E,19.15,302.60,260910,,*34
$GPGGA,111740.250,4635.0541,N,00018.3865,E,1,7,226,190.03,M,190.03,M,,*43
$GPVTG,0.000,T,0,M,19.15,N,35.44,K*5a
$GPRMC,111740.500,A,4635.0549,N,00018.3851,E,19.38,305.30,260910,,*34
$GPGGA,111740.500,4635.0549,N,00018.3851,E,1,7,226,190.42,M,190.42,M,,*4e
$GPVTG,0.000,T,0,M,19.38,N,35.87,K*5a
$GPRMC,111740.750,A,4635.0559,N,00018.3838,E,19.36,308.00,260910,,*3d
$GPGGA,111740.750,4635.0559,N,00018.3838,E,1,7,226,190.76,M,190.76,M,,*47
$GPVTG,0.000,T,0,M,19.36,N,35.84,K*57
$GPRMC,111741.000,A,4635.0568,N,00018.3825,E,19.26,310.00,260910,,*38
$GPGGA,111741.000,4635.0568,N,00018.3825,E,1,7,226,191.06,M,191.06,M,,*4a
$GPVTG,0.000,T,0,M,19.26,N,35.66,K*5a
$GPRMC,111741.250,A,4635.0578,N,00018.3813,E,19.44,313.20,260910,,*3e
$GPGGA,111741.250,4635.0578,N,00018.3813,E,1,7,226,191.43,M,191.43,M,,*49
$GPVTG,0.000,T,0,M,19.44,N,35.98,K*5f
$GPRMC,111741.500,A,4635.0591,N,00018.3801,E,19.83,316.70,260910,,*33
$GPGGA,111741.500,4635.0591,N,00018.3801,E,1,7,226,191.91,M,191.91,M,,*4f
$GPVTG,0.000,T,0,M,19.83,N,36.70,K*51
$GPRMC,111741.750,A,4635.0598,N,00018.3791,E,19.69,320.10,260910,,*3c
$GPGGA,111741.750,4635.0598,N,00018.3791,E,1,7,226,192.46,M,192.46,M,,*47
$GPVTG,0.000,T,0,M,19.69,N,36.45,K*53
$GPRMC,111742.000,A,4635.0615,N,00018.3780,E,19.57,323.50,260910,,*31
$GPGGA,111742.000,4635.0615,N,00018.3780,E,1,7,226,192.94,M,192.94,M,,*40
$GPVTG,0.000,T,0,M,19.57,N,36.23,K*5e
$GPRMC,111742.250,A,4635.0625,N,00018.3772,E,20.10,327.10,260910,,*31
$GPGGA,111742.250,4635.0625,N,00018.3772,E,1,7,226,193.45,M,193.45,M,,*49
$GPVTG,0.000,T,0,M,20.10,N,37.21,K*54
$GPRMC,111742.500,A,4635.0639,N,00018.3764,E,19.75,329.50,260910,,*3a
$GPGGA,111742.500,4635.0639,N,00018.3764,E,1,7,226,193.91,M,193.91,M,,*41
$GPVTG,0.000,T,0,M,19.75,N,36.56,K*5c
$GPRMC,111742.750,A,4635.0652,N,00018.3757,E,19.48,332.10,260910,,*30
$GPGGA,111742.750,4635.0652,N,00018.3757,E,1,7,226,194.33,M,194.33,M,,*4b
$GPVTG,0.000,T,0,M,19.48,N,36.05,K*54
$GPRMC,111743.000,A,4635.0664,N,00018.3750,E,19.28,335.20,260910,,*33
$GPGGA,111743.000,4635.0664,N,00018.3750,E,1,7,226,194.62,M,194.62,M,,*4a
$GPVTG,0.000,T,0,M,19.28,N,35.69,K*5b
$GPRMC,111743.250,A,4635.0676,N,00018.3746,E,19.15,338.60,260910,,*37
$GPGGA,111743.250,4635.0676,N,00018.3746,E,1,7,226,194.94,M,194.94,M,,*49
$GPVTG,0.000,T,0,M,19.15,N,35.44,K*5a
$GPRMC,111743.500,A,4635.0692,N,00018.3742,E,19.28,341.00,260910,,*3d
$GPGGA,111743.500,4635.0692,N,00018.3742,E,1,7,226,195.20,M,195.20,M,,*45
$GPVTG,0.000,T,0,M,19.28,N,35.69,K*5b
$GPRMC,111743.750,A,4635.0700,N,00018.3740,E,18.95,344.20,260910,,*32
$GPGGA,111743.750,4635.0700,N,00018.3740,E,1,7,226,195.47,M,195.47,M,,*4a
$GPVTG,0.000,T,0,M,18.95,N,35.08,K*5b
$GPRMC,111744.000,A,4635.0714,N,00018.3738,E,19.67,347.00,260910,,*30
$GPGGA,111744.000,4635.0714,N,00018.3738,E,1,7,226,195.51,M,195.51,M,,*45
$GPVTG,0.000,T,0,M,19.67,N,36.41,K*59
$GPRMC,111744.250,A,4635.0726,N,00018.3737,E,19.98,350.10,260910,,*3e
$GPGGA,111744.250,4635.0726,N,00018.3737,E,1,7,226,195.47,M,195.47,M,,*4c
$GPVTG,0.000,T,0,M,19.98,N,36.99,K*5c
$GPRMC,111744.500,A,4635.0740,N,00018.3737,E,19.79,352.90,260910,,*39
$GPGGA,111744.500,4635.0740,N,00018.3737,E,1,7,226,195.58,M,195.58,M,,*4e
$GPVTG,0.000,T,0,M,19.79,N,36.63,K*56
$GPRMC,111744.750,A,4635.0750,N,00018.3739,E,20.22,355.70,260910,,*3c
$GPGGA,111744.750,4635.0750,N,00018.3739,E,1,7,226,195.70,M,195.70,M,,*46
$GPVTG,0.000,T,0,M,20.22,N,37.42,K*50
$GPRMC,111745.000,A,4635.0768,N,00018.3742,E,20.68,358.40,260910,,*38
$GPGGA,111745.000,4635.0768,N,00018.3742,E,1,7,226,195.77,M,195.77,M,,*42
$GPVTG,0.000,T,0,M,20.68,N,38.29,K*5c
$GPRMC,111745.250,A,4635.0782,N,00018.3746,E,21.91,1.70,260910,,*34
$GPGGA,111745.250,4635.0782,N,00018.3746,E,1,7,226,195.84,M,195.84,M,,*45
$GPVTG,0.000,T,0,M,21.91,N,40.55,K*5f
$GPRMC,111745.500,A,4635.0794,N,00018.3752,E,21.07,4.60,260910,,*3f
$GPGGA,111745.500,4635.0794,N,00018.3752,E,1,7,226,195.96,M,195.96,M,,*45
$GPVTG,0.000,T,0,M,21.07,N,39.01,K*5f
$GPRMC,111745.750,A,4635.0808,N,00018.3759,E,20.88,7.00,260910,,*3a
$GPGGA,111745.750,4635.0808,N,00018.3759,E,1,7,226,196.02,M,196.02,M,,*43
$GPVTG,0.000,T,0,M,20.88,N,38.65,K*5a
$GPRMC,111746.000,A,4635.0820,N,00018.3766,E,21.46,9.60,260910,,*36
$GPGGA,111746.000,4635.0820,N,00018.3766,E,1,7,226,196.01,M,196.01,M,,*44
$GPVTG,0.000,T,0,M,21.46,N,39.72,K*5e
$GPRMC,111746.250,A,4635.0836,N,00018.3774,E,20.86,12.20,260910,,*06
$GPGGA,111746.250,4635.0836,N,00018.3774,E,1,7,226,196.13,M,196.13,M,,*47
$GPVTG,0.000,T,0,M,20.86,N,38.61,K*50
$GPRMC,111746.500,A,4635.0847,N,00018.3783,E,21.48,14.70,260910,,*0a
$GPGGA,111746.500,4635.0847,N,00018.3783,E,1,7,226,196.18,M,196.18,M,,*4b
$GPVTG,0.000,T,0,M,21.48,N,39.76,K*54
$GPRMC,111746.750,A,4635.0862,N,00018.3792,E,21.54,17.00,260910,,*03
$GPGGA,111746.750,4635.0862,N,00018.3792,E,1,7,226,196.20,M,196.20,M,,*4b
$GPVTG,0.000,T,0,M,21.54,N,39.87,K*57
$GPRMC,111747.000,A,4635.0875,N,00018.3802,E,21.97,18.90,260910,,*09
$GPGGA,111747.000,4635.0875,N,00018.3802,E,1,7,226,196.16,M,196.16,M,,*48
$GPVTG,0.000,T,0,M,21.97,N,40.66,K*59
$GPRMC,111747.250,A,4635.0890,N,00018.3813,E,22.30,20.80,260910,,*01
$GPGGA,111747.250,4635.0890,N,00018.3813,E,1,7,226,196.08,M,196.08,M,,*44
$GPVTG,0.000,T,0,M,22.30,N,41.27,K*53
$GPRMC,111747.500,A,4635.0901,N,00018.3824,E,22.70,22.80,260910,,*08
$GPGGA,111747.500,4635.0901,N,00018.3824,E,1,7,226,195.95,M,195.95,M,,*4b
$GPVTG,0.000,T,0,M,22.70,N,42.03,K*52
$GPRMC,111747.750,A,4635.0915,N,00018.3836,E,22.65,24.70,260910,,*04
$GPGGA,111747.750,4635.0915,N,00018.3836,E,1,7,226,195.74,M,195.74,M,,*4a
$GPVTG,0.000,T,0,M,22.65,N,41.92,K*5d
$GPRMC,111748.000,A,4635.0929,N,00018.3848,E,23.19,26.70,260910,,*07
$GPGGA,111748.000,4635.0929,N,00018.3848,E,1,7,226,195.39,M,195.39,M,,*41
$GPVTG,0.000,T,0,M,23.19,N,42.93,K*55
$GPRMC,111748.250,A,4635.0943,N,00018.3862,E,22.98,28.80,260910,,*0d
$GPGGA,111748.250,4635.0943,N,00018.3862,E,1,7,226,195.18,M,195.18,M,,*42
$GPVTG,0.000,T,0,M,22.98,N,42.53,K*51
$GPRMC,111748.500,A,4635.0959,N,00018.3876,E,23.68,30.20,260910,,*0c
$GPGGA,111748.500,4635.0959,N,00018.3876,E,1,7,226,194.88,M,194.88,M,,*4e
$GPVTG,0.000,T,0,M,23.68,N,43.83,K*53
$GPRMC,111748.750,A,4635.0970,N,00018.3891,E,23.83,31.70,260910,,*08
$GPGGA,111748.750,4635.0970,N,00018.3891,E,1,7,226,194.65,M,194.65,M,,*4b
$GPVTG,0.000,T,0,M,23.83,N,44.11,K*5a
$GPRMC,111749.000,A,4635.0988,N,00018.3906,E,24.75,33.40,260910,,*0c
$GPGGA,111749.000,4635.0988,N,00018.3906,E,1,7,226,194.40,M,194.40,M,,*40
$GPVTG,0.000,T,0,M,24.75,N,45.81,K*5c
$GPRMC,111749.250,A,4635.0997,N,00018.3922,E,25.29,35.70,260910,,*0e
$GPGGA,111749.250,4635.0997,N,00018.3922,E,1,7,226,194.00,M,194.00,M,,*4f
$GPVTG,0.000,T,0,M,25.29,N,46.81,K*57
$GPRMC,111749.500,A,4635.1009,N,00018.3939,E,26.11,37.70,260910,,*03
$GPGGA,111749.500,4635.1009,N,00018.3939,E,1,7,226,193.81,M,193.81,M,,*48
$GPVTG,0.000,T,0,M,26.11,N,48.32,K*59
$GPRMC,111749.750,A,4635.1022,N,00018.3957,E,26.59,39.50,260910,,*05
$GPGGA,111749.750,4635.1022,N,00018.3957,E,1,7,226,193.55,M,193.55,M,,*4e
$GPVTG,0.000,T,0,M,26.59,N,49.22,K*55
$GPRMC,111750.000,A,4635.1029,N,00018.3977,E,27.56,41.80,260910,,*0a
$GPGGA,111750.000,4635.1029,N,00018.3977,E,1,7,226,193.32,M,193.32,M,,*4d
$GPVTG,0.000,T,0,M,27.56,N,51.02,K*50
$GPRMC,111750.250,A,4635.1043,N,00018.3998,E,28.17,43.90,260910,,*09
$GPGGA,111750.250,4635.1043,N,00018.3998,E,1,8,187,193.13,M,193.13,M,,*40
$GPVTG,0.000,T,0,M,28.17,N,52.14,K*5e
$GPRMC,111750.500,A,4635.1053,N,00018.4021,E,29.22,46.20,260910,,*0f
$GPGGA,111750.500,4635.1053,N,00018.4021,E,1,8,187,193.00,M,193.00,M,,*4f
$GPVTG,0.000,T,0,M,29.22,N,54.08,K*52
$GPRMC,111750.750,A,4635.1064,N,00018.4046,E,29.97,49.40,260910,,*0a
$GPGGA,111750.750,4635.1064,N,00018.4046,E,1,8,187,192.85,M,192.85,M,,*4d
$GPVTG,0.000,T,0,M,29.97,N,55.49,K*58
$GPRMC,111751.000,A,4635.1073,N,00018.4075,E,30.95,53.70,260910,,*0d
$GPGGA,111751.000,4635.1073,N,00018.4075,E,1,8,187,192.69,M,192.69,M,,*48
$GPVTG,0.000,T,0,M,30.95,N,57.28,K*57
$GPRMC,111751.250,A,4635.1080,N,00018.4102,E,30.63,57.50,260910,,*08
$GPGGA,111751.250,4635.1080,N,00018.4102,E,1,8,187,192.46,M,192.46,M,,*42
$GPVTG,0.000,T,0,M,30.63,N,56.71,K*53
$GPRMC,111751.500,A,4635.1088,N,00018.4132,E,31.74,62.20,260910,,*07
$GPGGA,111751.500,4635.1088,N,00018.4132,E,1,8,187,192.36,M,192.36,M,,*4b
$GPVTG,0.000,T,0,M,31.74,N,58.76,K*5d
$GPRMC,111751.750,A,4635.1090,N,00018.4159,E,31.33,66.20,260910,,*03
$GPGGA,111751.750,4635.1090,N,00018.4159,E,1,8,187,192.39,M,192.39,M,,*48
$GPVTG,0.000,T,0,M,31.33,N,58.00,K*5f
$GPRMC,111752.250,A,4635.1097,N,00018.4224,E,32.48,77.40,260910,,*02
$GPGGA,111752.250,4635.1097,N,00018.4224,E,1,8,187,192.73,M,192.73,M,,*40
$GPVTG,0.000,T,0,M,32.48,N,60.13,K*59
$GPRMC,111752.500,A,4635.1098,N,00018.4256,E,32.40,82.40,260910,,*08
$GPGGA,111752.500,4635.1098,N,00018.4256,E,1,8,187,192.97,M,192.97,M,,*48
$GPVTG,0.000,T,0,M,32.40,N,59.98,K*58
$GPRMC,111752.750,A,4635.1097,N,00018.4289,E,31.86,86.70,260910,,*0c
$GPGGA,111752.750,4635.1097,N,00018.4289,E,1,8,187,193.17,M,193.17,M,,*42
$GPVTG,0.000,T,0,M,31.86,N,58.98,K*50
$GPRMC,111753.000,A,4635.1094,N,00018.4323,E,31.53,91.00,260910,,*04
$GPGGA,111753.000,4635.1094,N,00018.4323,E,1,8,187,193.47,M,193.47,M,,*43
$GPVTG,0.000,T,0,M,31.53,N,58.36,K*5c
$GPRMC,111753.250,A,4635.1090,N,00018.4354,E,30.11,94.30,260910,,*06
$GPGGA,111753.250,4635.1090,N,00018.4354,E,1,8,187,193.64,M,193.64,M,,*40
$GPVTG,0.000,T,0,M,30.11,N,55.74,K*50
$GPRMC,111753.500,A,4635.1085,N,00018.4387,E,29.72,98.50,260910,,*09
$GPGGA,111753.500,4635.1085,N,00018.4387,E,1,8,187,193.84,M,193.84,M,,*48
$GPVTG,0.000,T,0,M,29.72,N,55.02,K*5c
$GPRMC,111753.750,A,4635.1076,N,00018.4416,E,28.92,103.90,260910,,*3d
$GPGGA,111753.750,4635.1076,N,00018.4416,E,1,8,187,194.21,M,194.21,M,,*4c
$GPVTG,0.000,T,0,M,28.92,N,53.54,K*56
$GPRMC,111754.000,A,4635.1068,N,00018.4442,E,29.06,108.80,260910,,*30
$GPGGA,111754.000,4635.1068,N,00018.4442,E,1,8,187,194.45,M,194.45,M,,*47
$GPVTG,0.000,T,0,M,29.06,N,53.79,K*55
$GPRMC,111754.250,A,4635.1060,N,00018.4466,E,28.57,111.50,260910,,*39
$GPGGA,111754.250,4635.1060,N,00018.4466,E,1,8,187,194.58,M,194.58,M,,*4e
$GPVTG,0.000,T,0,M,28.57,N,52.89,K*5e
$GPRMC,111754.500,A,4635.1050,N,00018.4489,E,27.66,114.90,260910,,*3d
$GPGGA,111754.500,4635.1050,N,00018.4489,E,1,8,187,194.74,M,194.74,M,,*4e
$GPVTG,0.000,T,0,M,27.66,N,51.20,K*53
$GPRMC,111754.750,A,4635.1040,N,00018.4511,E,27.45,118.40,260910,,*3b
$GPGGA,111754.750,4635.1040,N,00018.4511,E,1,8,187,195.00,M,195.00,M,,*48
$GPVTG,0.000,T,0,M,27.45,N,50.81,K*58
$GPRMC,111755.000,A,4635.1027,N,00018.4532,E,27.19,121.70,260910,,*38
$GPGGA,111755.000,4635.1027,N,00018.4532,E,1,8,187,195.19,M,195.19,M,,*4b
$GPVTG,0.000,T,0,M,27.19,N,50.34,K*5f
$GPRMC,111755.250,A,4635.1013,N,00018.4552,E,27.10,125.10,260910,,*35
$GPGGA,111755.250,4635.1013,N,00018.4552,E,1,8,187,195.34,M,195.34,M,,*4d
$GPVTG,0.000,T,0,M,27.10,N,50.16,K*56
$GPRMC,111755.500,A,4635.1003,N,00018.4573,E,28.17,128.60,260910,,*37
$GPGGA,111755.500,4635.1003,N,00018.4573,E,1,8,187,195.39,M,195.39,M,,*4d
$GPVTG,0.000,T,0,M,28.17,N,52.14,K*5e
$GPRMC,111755.750,A,4635.0990,N,00018.4592,E,27.86,131.40,260910,,*30
$GPGGA,111755.750,4635.0990,N,00018.4592,E,1,8,187,195.53,M,195.53,M,,*47
$GPVTG,0.000,T,0,M,27.86,N,51.56,K*5c
$GPRMC,111756.000,A,4635.0977,N,00018.4610,E,28.36,134.10,260910,,*35
$GPGGA,111756.000,4635.0977,N,00018.4610,E,1,8,187,195.62,M,195.62,M,,*46
$GPVTG,0.000,T,0,M,28.36,N,52.50,K*5d
$GPRMC,111756.250,A,4635.0958,N,00018.4630,E,28.48,136.40,260910,,*33
$GPGGA,111756.250,4635.0958,N,00018.4630,E,1,8,187,195.66,M,195.66,M,,*4e
$GPVTG,0.000,T,0,M,28.48,N,52.71,K*57
$GPRMC,111756.500,A,4635.0943,N,00018.4648,E,28.40,139.40,260910,,*33
$GPGGA,111756.500,4635.0943,N,00018.4648,E,1,8,187,195.80,M,195.80,M,,*49
$GPVTG,0.000,T,0,M,28.40,N,52.57,K*5b
$GPRMC,111756.750,A,4635.0928,N,00018.4664,E,28.21,142.30,260910,,*3b
$GPGGA,111756.750,4635.0928,N,00018.4664,E,1,8,187,195.89,M,195.89,M,,*4d
$GPVTG,0.000,T,0,M,28.21,N,52.21,K*5d
$GPRMC,111757.000,A,4635.0909,N,00018.4679,E,28.79,146.20,260910,,*3f
$GPGGA,111757.000,4635.0909,N,00018.4679,E,1,8,187,196.01,M,196.01,M,,*41
$GPVTG,0.000,T,0,M,28.79,N,53.29,K*59
$GPRMC,111757.250,A,4635.0890,N,00018.4692,E,28.21,148.80,260910,,*35
$GPGGA,111757.250,4635.0890,N,00018.4692,E,1,8,187,196.36,M,196.36,M,,*42
$GPVTG,0.000,T,0,M,28.21,N,52.21,K*5d
$GPRMC,111757.500,A,4635.0872,N,00018.4704,E,28.52,151.60,260910,,*37
$GPGGA,111757.500,4635.0872,N,00018.4704,E,1,8,187,196.77,M,196.77,M,,*42
$GPVTG,0.000,T,0,M,28.52,N,52.79,K*54
$GPRMC,111757.750,A,4635.0853,N,00018.4715,E,26.83,154.20,260910,,*30
$GPGGA,111757.750,4635.0853,N,00018.4715,E,1,8,187,197.18,M,197.18,M,,*46
$GPVTG,0.000,T,0,M,26.83,N,49.66,K*52
$GPRMC,111758.000,A,4635.0834,N,00018.4725,E,26.84,156.90,260910,,*31
$GPGGA,111758.000,4635.0834,N,00018.4725,E,1,8,187,197.49,M,197.49,M,,*49
$GPVTG,0.000,T,0,M,26.84,N,49.69,K*5a
$GPRMC,111758.250,A,4635.0817,N,00018.4734,E,26.71,159.40,260910,,*3f
$GPGGA,111758.250,4635.0817,N,00018.4734,E,1,8,187,197.79,M,197.79,M,,*4f
$GPVTG,0.000,T,0,M,26.71,N,49.44,K*5f
$GPRMC,111758.500,A,4635.0798,N,00018.4741,E,25.87,161.60,260910,,*34
$GPGGA,111758.500,4635.0798,N,00018.4741,E,1,8,187,197.95,M,197.95,M,,*47
$GPVTG,0.000,T,0,M,25.87,N,47.89,K*5a
$GPRMC,111758.750,A,4635.0781,N,00018.4747,E,24.76,164.30,260910,,*32
$GPGGA,111758.750,4635.0781,N,00018.4747,E,1,8,187,197.98,M,197.98,M,,*4e
$GPVTG,0.000,T,0,M,24.76,N,45.84,K*5a
$GPRMC,111759.000,A,4635.0764,N,00018.4752,E,25.17,166.60,260910,,*3f
$GPGGA,111759.000,4635.0764,N,00018.4752,E,1,8,187,197.90,M,197.90,M,,*42
$GPVTG,0.000,T,0,M,25.17,N,46.60,K*55
$GPRMC,111759.250,A,4635.0745,N,00018.4757,E,24.73,168.80,260910,,*3d
$GPGGA,111759.250,4635.0745,N,00018.4757,E,1,8,187,197.67,M,197.67,M,,*43
$GPVTG,0.000,T,0,M,24.73,N,45.77,K*53
$GPRMC,111759.500,A,4635.0726,N,00018.4759,E,23.97,171.60,260910,,*3f
$GPGGA,111759.500,4635.0726,N,00018.4759,E,1,8,187,197.49,M,197.49,M,,*4a
$GPVTG,0.000,T,0,M,23.97,N,44.37,K*5b
$GPRMC,111759.750,A,4635.0712,N,00018.4759,E,23.75,174.50,260910,,*35
$GPGGA,111759.750,4635.0712,N,00018.4759,E,1,8,187,197.14,M,197.14,M,,*4a
$GPVTG,0.000,T,0,M,23.75,N,43.97,K*5a
$GPRMC,111800.000,A,4635.0697,N,00018.4756,E,23.25,177.80,260910,,*3c
$GPGGA,111800.000,4635.0697,N,00018.4756,E,1,8,187,196.76,M,196.76,M,,*48
$GPVTG,0.000,T,0,M,23.25,N,43.04,K*55
$GPRMC,111800.250,A,4635.0678,N,00018.4752,E,22.78,180.80,260910,,*3f
$GPGGA,111800.250,4635.0678,N,00018.4752,E,1,8,187,196.18,M,196.18,M,,*4a
$GPVTG,0.000,T,0,M,22.78,N,42.17,K*5f
$GPRMC,111800.500,A,4635.0664,N,00018.4746,E,22.63,184.70,260910,,*34
$GPGGA,111800.500,4635.0664,N,00018.4746,E,1,8,187,195.70,M,195.70,M,,*40
$GPVTG,0.000,T,0,M,22.63,N,41.88,K*50
$GPRMC,111800.750,A,4635.0653,N,00018.4738,E,21.01,188.70,260910,,*35
$GPGGA,111800.750,4635.0653,N,00018.4738,E,1,8,187,195.27,M,195.27,M,,*4a
$GPVTG,0.000,T,0,M,21.01,N,38.90,K*50
$GPRMC,111801.000,A,4635.0643,N,00018.4730,E,21.63,193.10,260910,,*37
$GPGGA,111801.000,4635.0643,N,00018.4730,E,1,8,187,194.92,M,194.92,M,,*40
$GPVTG,0.000,T,0,M,21.63,N,40.05,K*57
$GPRMC,111801.250,A,4635.0632,N,00018.4719,E,20.80,198.40,260910,,*3f
$GPGGA,111801.250,4635.0632,N,00018.4719,E,1,8,187,194.58,M,194.58,M,,*4a
$GPVTG,0.000,T,0,M,20.80,N,38.50,K*54
$GPRMC,111801.500,A,4635.0623,N,00018.4706,E,20.00,203.00,260910,,*3e
$GPGGA,111801.500,4635.0623,N,00018.4706,E,1,8,187,194.37,M,194.37,M,,*46
$GPVTG,0.000,T,0,M,20.00,N,37.03,K*55
$GPRMC,111801.750,A,4635.0614,N,00018.4689,E,19.71,208.40,260910,,*38
$GPGGA,111801.750,4635.0614,N,00018.4689,E,1,8,187,194.11,M,194.11,M,,*43
$GPVTG,0.000,T,0,M,19.71,N,36.49,K*56
$GPRMC,111802.000,A,4635.0612,N,00018.4673,E,18.51,213.70,260910,,*30
$GPGGA,111802.000,4635.0612,N,00018.4673,E,1,8,187,194.20,M,194.20,M,,*41
$GPVTG,0.000,T,0,M,18.51,N,34.26,K*5e
$GPRMC,111802.250,A,4635.0608,N,00018.4656,E,17.98,219.40,260910,,*38
$GPGGA,111802.250,4635.0608,N,00018.4656,E,1,8,187,194.11,M,194.11,M,,*4a
$GPVTG,0.000,T,0,M,17.98,N,33.28,K*5d
$GPRMC,111802.500,A,4635.0606,N,00018.4636,E,17.73,225.80,260910,,*34
$GPGGA,111802.500,4635.0606,N,00018.4636,E,1,8,187,193.97,M,193.97,M,,*40
$GPVTG,0.000,T,0,M,17.73,N,32.82,K*59
$GPRMC,111802.750,A,4635.0602,N,00018.4614,E,17.46,232.70,260910,,*38
$GPGGA,111802.750,4635.0602,N,00018.4614,E,1,8,187,194.01,M,194.01,M,,*43
$GPVTG,0.000,T,0,M,17.46,N,32.31,K*57
$GPRMC,111803.000,A,4635.0601,N,00018.4593,E,17.22,238.60,260910,,*3d
$GPGGA,111803.000,4635.0601,N,00018.4593,E,1,8,187,193.92,M,193.92,M,,*4f
$GPVTG,0.000,T,0,M,17.22,N,31.88,K*54
$GPRMC,111803.250,A,4635.0601,N,00018.4574,E,17.18,245.30,260910,,*35
$GPGGA,111803.250,4635.0601,N,00018.4574,E,1,8,187,193.79,M,193.79,M,,*41
$GPVTG,0.000,T,0,M,17.18,N,31.81,K*54
$GPRMC,111803.500,A,4635.0606,N,00018.4557,E,17.49,251.70,260910,,*34
$GPGGA,111803.500,4635.0606,N,00018.4557,E,1,8,187,193.52,M,193.52,M,,*45
$GPVTG,0.000,T,0,M,17.49,N,32.38,K*51
$GPRMC,111803.750,A,4635.0609,N,00018.4539,E,17.24,258.50,260910,,*34
$GPGGA,111803.750,4635.0609,N,00018.4539,E,1,8,187,193.20,M,193.20,M,,*45
$GPVTG,0.000,T,0,M,17.24,N,31.92,K*59
$GPRMC,111804.000,A,4635.0613,N,00018.4523,E,17.01,264.50,260910,,*39
$GPGGA,111804.000,4635.0613,N,00018.4523,E,1,8,187,193.02,M,193.02,M,,*40
$GPVTG,0.000,T,0,M,17.01,N,31.48,K*59
$GPRMC,111804.250,A,4635.0618,N,00018.4505,E,17.67,272.80,260910,,*3b
$GPGGA,111804.250,4635.0618,N,00018.4505,E,1,8,187,192.78,M,192.78,M,,*48
$GPVTG,0.000,T,0,M,17.67,N,32.71,K*50
$GPRMC,111804.500,A,4635.0623,N,00018.4488,E,16.76,278.60,260910,,*30
$GPGGA,111804.500,4635.0623,N,00018.4488,E,1,8,187,193.14,M,193.14,M,,*46
$GPVTG,0.000,T,0,M,16.76,N,31.02,K*56
$GPRMC,111804.750,A,4635.0631,N,00018.4474,E,17.63,285.60,260910,,*30
$GPGGA,111804.750,4635.0631,N,00018.4474,E,1,8,187,193.52,M,193.52,M,,*41
$GPVTG,0.000,T,0,M,17.63,N,32.64,K*50
$GPRMC,111805.000,A,4635.0638,N,00018.4460,E,17.38,292.80,260910,,*39
$GPGGA,111805.000,4635.0638,N,00018.4460,E,1,8,187,193.82,M,193.82,M,,*4e
$GPVTG,0.000,T,0,M,17.38,N,32.17,K*5a
$GPRMC,111805.250,A,4635.0650,N,00018.4448,E,18.08,300.50,260910,,*31
$GPGGA,111805.250,4635.0650,N,00018.4448,E,1,8,187,194.38,M,194.38,M,,*4d
$GPVTG,0.000,T,0,M,18.08,N,33.46,K*53
$GPRMC,111805.500,A,4635.0660,N,00018.4440,E,18.19,308.20,260910,,*37
$GPGGA,111805.500,4635.0660,N,00018.4440,E,1,8,187,194.91,M,194.91,M,,*44
$GPVTG,0.000,T,0,M,18.19,N,33.68,K*5f
$GPRMC,111805.750,A,4635.0673,N,00018.4430,E,18.12,314.50,260910,,*34
$GPGGA,111805.750,4635.0673,N,00018.4430,E,1,8,187,195.50,M,195.50,M,,*46
$GPVTG,0.000,T,0,M,18.12,N,33.54,K*5b
$GPRMC,111806.000,A,4635.0680,N,00018.4422,E,17.34,319.80,260910,,*31
$GPGGA,111806.000,4635.0680,N,00018.4422,E,1,8,187,195.19,M,195.19,M,,*48
$GPVTG,0.000,T,0,M,17.34,N,32.10,K*51
$GPRMC,111806.250,A,4635.0697,N,00018.4417,E,17.34,325.20,260910,,*33
$GPGGA,111806.250,4635.0697,N,00018.4417,E,1,8,187,195.14,M,195.14,M,,*4f
$GPVTG,0.000,T,0,M,17.34,N,32.10,K*51
$GPRMC,111806.500,A,4635.0708,N,00018.4414,E,18.33,331.10,260910,,*3b
$GPGGA,111806.500,4635.0708,N,00018.4414,E,1,8,187,195.48,M,195.48,M,,*49
$GPVTG,0.000,T,0,M,18.33,N,33.93,K*53
$GPRMC,111806.750,A,4635.0718,N,00018.4412,E,18.49,337.30,260910,,*32
$GPGGA,111806.750,4635.0718,N,00018.4412,E,1,8,187,195.73,M,195.73,M,,*49
$GPVTG,0.000,T,0,M,18.49,N,34.22,K*53
$GPRMC,111807.000,A,4635.0735,N,00018.4411,E,18.82,343.60,260910,,*3c
$GPGGA,111807.000,4635.0735,N,00018.4411,E,1,8,187,195.48,M,195.48,M,,*46
$GPVTG,0.000,T,0,M,18.82,N,34.83,K*5f
$GPRMC,111807.250,A,4635.0746,N,00018.4414,E,19.71,350.20,260910,,*31
$GPGGA,111807.250,4635.0746,N,00018.4414,E,1,8,187,195.61,M,195.61,M,,*40
$GPVTG,0.000,T,0,M,19.71,N,36.49,K*56
$GPRMC,111807.500,A,4635.0760,N,00018.4418,E,19.56,355.80,260910,,*31
$GPGGA,111807.500,4635.0760,N,00018.4418,E,1,8,187,195.52,M,195.52,M,,*4a
$GPVTG,0.000,T,0,M,19.56,N,36.20,K*5c
$GPRMC,111807.750,A,4635.0770,N,00018.4425,E,21.38,2.10,260910,,*32
$GPGGA,111807.750,4635.0770,N,00018.4425,E,1,8,187,195.27,M,195.27,M,,*42
$GPVTG,0.000,T,0,M,21.38,N,39.58,K*5f
$GPRMC,111808.000,A,4635.0784,N,00018.4435,E,21.05,7.10,260910,,*3e
$GPGGA,111808.000,4635.0784,N,00018.4435,E,1,8,187,195.23,M,195.23,M,,*45
$GPVTG,0.000,T,0,M,21.05,N,38.97,K*53
$GPRMC,111808.250,A,4635.0798,N,00018.4446,E,22.37,12.10,260910,,*06
$GPGGA,111808.250,4635.0798,N,00018.4446,E,1,8,187,194.94,M,194.94,M,,*4b
$GPVTG,0.000,T,0,M,22.37,N,41.42,K*57
$GPRMC,111808.500,A,4635.0811,N,00018.4459,E,23.70,18.10,260910,,*0c
$GPGGA,111808.500,4635.0811,N,00018.4459,E,1,8,187,194.44,M,194.44,M,,*49
$GPVTG,0.000,T,0,M,23.70,N,43.86,K*5f
$GPRMC,111808.750,A,4635.0823,N,00018.4475,E,25.87,23.30,260910,,*00
$GPGGA,111808.750,4635.0823,N,00018.4475,E,1,8,187,193.92,M,193.92,M,,*41
$GPVTG,0.000,T,0,M,25.87,N,47.89,K*5a
$GPRMC,111809.000,A,4635.0837,N,00018.4492,E,26.44,28.40,260910,,*0f
$GPGGA,111809.000,4635.0837,N,00018.4492,E,1,8,187,193.42,M,193.42,M,,*4e
$GPVTG,0.000,T,0,M,26.44,N,48.94,K*55
$GPRMC,111809.250,A,4635.0848,N,00018.4511,E,27.93,32.50,260910,,*0b
$GPGGA,111809.250,4635.0848,N,00018.4511,E,1,8,187,193.31,M,193.31,M,,*4b
$GPVTG,0.000,T,0,M,27.93,N,51.71,K*5d
$GPRMC,111809.500,A,4635.0862,N,00018.4532,E,28.50,37.00,260910,,*00
$GPGGA,111809.500,4635.0862,N,00018.4532,E,1,8,187,193.23,M,193.23,M,,*40
$GPVTG,0.000,T,0,M,28.50,N,52.75,K*5a
$GPRMC,111809.750,A,4635.0873,N,00018.4557,E,29.64,43.00,260910,,*01
$GPGGA,111809.750,4635.0873,N,00018.4557,E,1,8,187,193.14,M,193.14,M,,*44
$GPVTG,0.000,T,0,M,29.64,N,54.87,K*57
$GPRMC,111810.000,A,4635.0884,N,00018.4583,E,30.29,49.20,260910,,*03
$GPGGA,111810.000,4635.0884,N,00018.4583,E,1,8,187,193.13,M,193.13,M,,*4f
$GPVTG,0.000,T,0,M,30.29,N,56.06,K*5d
$GPRMC,111810.250,A,4635.0890,N,00018.4611,E,31.26,55.00,260910,,*08
$GPGGA,111810.250,4635.0890,N,00018.4611,E,1,8,187,193.00,M,193.00,M,,*45
$GPVTG,0.000,T,0,M,31.26,N,57.86,K*5a
$GPRMC,111810.500,A,4635.0896,N,00018.4642,E,31.82,60.00,260910,,*02
$GPGGA,111810.500,4635.0896,N,00018.4642,E,1,8,187,192.81,M,192.81,M,,*47
$GPVTG,0.000,T,0,M,31.82,N,58.90,K*5c
$GPRMC,111810.750,A,4635.0902,N,00018.4673,E,32.21,65.80,260910,,*0c
$GPGGA,111810.750,4635.0902,N,00018.4673,E,1,8,187,192.81,M,192.81,M,,*4e
$GPVTG,0.000,T,0,M,32.21,N,59.62,K*5a
$GPRMC,111811.000,A,4635.0903,N,00018.4704,E,31.70,71.10,260910,,*04
$GPGGA,111811.000,4635.0903,N,00018.4704,E,1,8,187,192.97,M,192.97,M,,*4d
$GPVTG,0.000,T,0,M,31.70,N,58.69,K*57
$GPRMC,111811.250,A,4635.0907,N,00018.4736,E,32.25,76.00,260910,,*03
$GPGGA,111811.250,4635.0907,N,00018.4736,E,1,8,187,193.26,M,193.26,M,,*4f
$GPVTG,0.000,T,0,M,32.25,N,59.70,K*5d
$GPRMC,111811.500,A,4635.0908,N,00018.4769,E,31.78,79.30,260910,,*03
$GPGGA,111811.500,4635.0908,N,00018.4769,E,1,8,187,193.58,M,193.58,M,,*48
$GPVTG,0.000,T,0,M,31.78,N,58.83,K*5b
$GPRMC,111811.750,A,4635.0912,N,00018.4801,E,30.97,81.20,260910,,*08
$GPGGA,111811.750,4635.0912,N,00018.4801,E,1,8,187,193.90,M,193.90,M,,*45
$GPVTG,0.000,T,0,M,30.97,N,57.32,K*5e
$GPRMC,111812.000,A,4635.0913,N,00018.4831,E,30.62,83.30,260910,,*02
$GPGGA,111812.000,4635.0913,N,00018.4831,E,1,8,187,194.48,M,194.48,M,,*46
$GPVTG,0.000,T,0,M,30.62,N,56.67,K*55
$GPRMC,111812.250,A,4635.0913,N,00018.4863,E,30.77,85.00,260910,,*03
$GPGGA,111812.250,4635.0913,N,00018.4863,E,1,8,187,194.97,M,194.97,M,,*46
$GPVTG,0.000,T,0,M,30.77,N,56.96,K*5f
$GPRMC,111812.500,A,4635.0914,N,00018.4894,E,30.63,86.30,260910,,*0b
$GPGGA,111812.500,4635.0914,N,00018.4894,E,1,8,187,195.42,M,195.42,M,,*4b
$GPVTG,0.000,T,0,M,30.63,N,56.71,K*53
$GPRMC,111812.750,A,4635.0917,N,00018.4925,E,30.32,86.90,260910,,*0a
$GPGGA,111812.750,4635.0917,N,00018.4925,E,1,8,187,195.81,M,195.81,M,,*44
$GPVTG,0.000,T,0,M,30.32,N,56.13,K*53
$GPRMC,111813.000,A,4635.0917,N,00018.4956,E,30.03,87.70,260910,,*00
$GPGGA,111813.000,4635.0917,N,00018.4956,E,1,8,187,196.19,M,196.19,M,,*43
$GPVTG,0.000,T,0,M,30.03,N,55.59,K*5c
$GPRMC,111813.250,A,4635.0918,N,00018.4987,E,30.21,87.80,260910,,*0b
$GPGGA,111813.250,4635.0918,N,00018.4987,E,1,8,187,196.48,M,196.48,M,,*47
$GPVTG,0.000,T,0,M,30.21,N,55.92,K*5b
$GPRMC,111813.500,A,4635.0919,N,00018.5020,E,30.48,88.40,260910,,*01
$GPGGA,111813.500,4635.0919,N,00018.5020,E,1,8,187,196.74,M,196.74,M,,*41
$GPVTG,0.000,T,0,M,30.48,N,56.42,K*5a
$GPRMC,111813.750,A,4635.0920,N,00018.5053,E,30.25,88.60,260910,,*01
$GPGGA,111813.750,4635.0920,N,00018.5053,E,1,8,187,196.87,M,196.87,M,,*48
$GPVTG,0.000,T,0,M,30.25,N,55.99,K*54
$GPRMC,111814.000,A,4635.0920,N,00018.5082,E,30.23,89.00,260910,,*09
$GPGGA,111814.000,4635.0920,N,00018.5082,E,1,8,187,196.87,M,196.87,M,,*41
$GPVTG,0.000,T,0,M,30.23,N,55.95,K*5e
$GPRMC,111814.250,A,4635.0921,N,00018.5112,E,31.30,90.10,260910,,*0d
$GPGGA,111814.250,4635.0921,N,00018.5112,E,1,8,187,196.92,M,196.92,M,,*4f
$GPVTG,0.000,T,0,M,31.30,N,57.93,K*59
$GPRMC,111814.500,A,4635.0917,N,00018.5142,E,30.69,91.10,260910,,*03
$GPGGA,111814.500,4635.0917,N,00018.5142,E,1,8,187,197.00,M,197.00,M,,*4d
$GPVTG,0.000,T,0,M,30.69,N,56.82,K*55
$GPRMC,111814.750,A,4635.0914,N,00018.5173,E,31.68,93.30,260910,,*05
$GPGGA,111814.750,4635.0914,N,00018.5173,E,1,8,187,197.00,M,197.00,M,,*4b
$GPVTG,0.000,T,0,M,31.68,N,58.65,K*52
$GPRMC,111815.000,A,4635.0913,N,00018.5203,E,31.00,95.60,260910,,*08
$GPGGA,111815.000,4635.0913,N,00018.5203,E,1,8,187,196.95,M,196.95,M,,*4b
$GPVTG,0.000,T,0,M,31.00,N,57.39,K*5a
$GPRMC,111815.250,A,4635.0905,N,00018.5234,E,31.67,99.10,260910,,*06
$GPGGA,111815.250,4635.0905,N,00018.5234,E,1,8,187,197.12,M,197.12,M,,*4f
$GPVTG,0.000,T,0,M,31.67,N,58.62,K*5a
$GPRMC,111815.500,A,4635.0900,N,00018.5263,E,30.21,102.40,260910,,*36
$GPGGA,111815.500,4635.0900,N,00018.5263,E,1,8,187,197.53,M,197.53,M,,*4a
$GPVTG,0.000,T,0,M,30.21,N,55.92,K*5b
$GPRMC,111815.750,A,4635.0892,N,00018.5291,E,31.24,104.90,260910,,*39
$GPGGA,111815.750,4635.0892,N,00018.5291,E,1,8,187,197.76,M,197.76,M,,*4a
$GPVTG,0.000,T,0,M,31.24,N,57.82,K*5c
$GPRMC,111816.000,A,4635.0886,N,00018.5321,E,32.09,108.00,260910,,*3e
$GPGGA,111816.000,4635.0886,N,00018.5321,E,1,8,187,197.85,M,197.85,M,,*44
$GPVTG,0.000,T,0,M,32.09,N,59.41,K*51
$GPRMC,111816.250,A,4635.0878,N,00018.5350,E,31.06,110.90,260910,,*32
$GPGGA,111816.250,4635.0878,N,00018.5350,E,1,8,187,198.29,M,198.29,M,,*44
$GPVTG,0.000,T,0,M,31.06,N,57.50,K*53
$GPRMC,111816.500,A,4635.0870,N,00018.5377,E,30.29,113.00,260910,,*3b
$GPGGA,111816.500,4635.0870,N,00018.5377,E,1,8,187,198.75,M,198.75,M,,*4b
$GPVTG,0.000,T,0,M,30.29,N,56.06,K*5d
$GPRMC,111816.750,A,4635.0861,N,00018.5404,E,30.58,114.80,260910,,*36
$GPGGA,111816.750,4635.0861,N,00018.5404,E,1,8,187,199.15,M,199.15,M,,*4f
$GPVTG,0.000,T,0,M,30.58,N,56.60,K*5b
$GPRMC,111817.000,A,4635.0851,N,00018.5430,E,30.11,116.30,260910,,*35
$GPGGA,111817.000,4635.0851,N,00018.5430,E,1,8,187,199.47,M,199.47,M,,*48
$GPVTG,0.000,T,0,M,30.11,N,55.74,K*50
$GPRMC,111817.250,A,4635.0841,N,00018.5456,E,29.53,117.50,260910,,*3a
$GPGGA,111817.250,4635.0841,N,00018.5456,E,1,8,187,199.85,M,199.85,M,,*4e
$GPVTG,0.000,T,0,M,29.53,N,54.66,K*5c
$GPRMC,111817.500,A,4635.0830,N,00018.5482,E,29.53,118.40,260910,,*39
$GPGGA,111817.500,4635.0830,N,00018.5482,E,1,8,187,200.14,M,200.14,M,,*43
$GPVTG,0.000,T,0,M,29.53,N,54.66,K*5c
$GPRMC,111817.750,A,4635.0820,N,00018.5507,E,30.25,119.40,260910,,*3b
$GPGGA,111817.750,4635.0820,N,00018.5507,E,1,8,187,200.23,M,200.23,M,,*49
$GPVTG,0.000,T,0,M,30.25,N,55.99,K*54
$GPRMC,111818.000,A,4635.0810,N,00018.5532,E,29.86,120.50,260910,,*39
$GPGGA,111818.000,4635.0810,N,00018.5532,E,1,8,187,200.26,M,200.26,M,,*41
$GPVTG,0.000,T,0,M,29.86,N,55.27,K*50
$GPRMC,111818.250,A,4635.0800,N,00018.5556,E,29.31,121.50,260910,,*30
$GPGGA,111818.250,4635.0800,N,00018.5556,E,1,8,187,200.13,M,200.13,M,,*45
$GPVTG,0.000,T,0,M,29.31,N,54.26,K*5c
$GPRMC,111818.500,A,4635.0787,N,00018.5580,E,28.85,122.30,260910,,*32
$GPGGA,111818.500,4635.0787,N,00018.5580,E,1,8,187,199.98,M,199.98,M,,*4c
$GPVTG,0.000,T,0,M,28.85,N,53.40,K*55
$GPRMC,111818.750,A,4635.0779,N,00018.5603,E,29.59,123.30,260910,,*3d
$GPGGA,111818.750,4635.0779,N,00018.5603,E,1,8,187,199.79,M,199.79,M,,*42
$GPVTG,0.000,T,0,M,29.59,N,54.77,K*56
$GPRMC,111819.000,A,4635.0764,N,00018.5626,E,29.45,123.80,260910,,*33
$GPGGA,111819.000,4635.0764,N,00018.5626,E,1,8,187,199.56,M,199.56,M,,*4a
$GPVTG,0.000,T,0,M,29.45,N,54.51,K*5f
$GPRMC,111819.250,A,4635.0752,N,00018.5651,E,30.17,124.50,260910,,*34
$GPGGA,111819.250,4635.0752,N,00018.5651,E,1,8,187,199.41,M,199.41,M,,*48
$GPVTG,0.000,T,0,M,30.17,N,55.85,K*58
$GPRMC,111819.500,A,4635.0741,N,00018.5676,E,30.13,124.90,260910,,*39
$GPGGA,111819.500,4635.0741,N,00018.5676,E,1,8,187,199.21,M,199.21,M,,*4d
$GPVTG,0.000,T,0,M,30.13,N,55.77,K*51
$GPRMC,111819.750,A,4635.0729,N,00018.5699,E,29.76,126.10,260910,,*30
$GPGGA,111819.750,4635.0729,N,00018.5699,E,1,8,187,199.03,M,199.03,M,,*45
$GPVTG,0.000,T,0,M,29.76,N,55.09,K*53
$GPRMC,111820.000,A,4635.0714,N,00018.5723,E,30.13,128.10,260910,,*33
$GPGGA,111820.000,4635.0714,N,00018.5723,E,1,8,187,198.79,M,198.79,M,,*43
$GPVTG,0.000,T,0,M,30.13,N,55.77,K*51
$GPRMC,111820.250,A,4635.0701,N,00018.5745,E,30.07,130.70,260910,,*3a
$GPGGA,111820.250,4635.0701,N,00018.5745,E,1,8,187,198.76,M,198.76,M,,*40
$GPVTG,0.000,T,0,M,30.07,N,55.67,K*55
$GPRMC,111820.500,A,4635.0686,N,00018.5766,E,30.17,133.30,260910,,*31
$GPGGA,111820.500,4635.0686,N,00018.5766,E,1,8,187,198.81,M,198.81,M,,*4d
$GPVTG,0.000,T,0,M,30.17,N,55.85,K*58
$GPRMC,111820.750,A,4635.0673,N,00018.5786,E,30.87,137.00,260910,,*3c
$GPGGA,111820.750,4635.0673,N,00018.5786,E,1,8,187,198.96,M,198.96,M,,*4e
$GPVTG,0.000,T,0,M,30.87,N,57.14,K*5b
$GPRMC,111821.000,A,4635.0654,N,00018.5805,E,31.02,140.20,260910,,*30
$GPGGA,111821.000,4635.0654,N,00018.5805,E,1,8,187,199.32,M,199.32,M,,*4c
$GPVTG,0.000,T,0,M,31.02,N,57.43,K*55
$GPRMC,111821.250,A,4635.0635,N,00018.5822,E,31.08,143.30,260910,,*3d
$GPGGA,111821.250,4635.0635,N,00018.5822,E,1,8,187,199.67,M,199.67,M,,*49
$GPVTG,0.000,T,0,M,31.08,N,57.54,K*59
$GPRMC,111821.500,A,4635.0615,N,00018.5838,E,30.50,146.60,260910,,*3a
$GPGGA,111821.500,4635.0615,N,00018.5838,E,1,8,187,200.20,M,200.20,M,,*42
$GPVTG,0.000,T,0,M,30.50,N,56.46,K*57
$GPRMC,111821.750,A,4635.0596,N,00018.5852,E,29.60,149.70,260910,,*3c
$GPGGA,111821.750,4635.0596,N,00018.5852,E,1,8,187,200.84,M,200.84,M,,*41
$GPVTG,0.000,T,0,M,29.60,N,54.80,K*54
$GPRMC,111822.000,A,4635.0579,N,00018.5865,E,28.90,151.70,260910,,*3f
$GPGGA,111822.000,4635.0579,N,00018.5865,E,1,8,187,201.37,M,201.37,M,,*45
$GPVTG,0.000,T,0,M,28.90,N,53.51,K*51
$GPRMC,111822.250,A,4635.0561,N,00018.5877,E,27.99,153.70,260910,,*36
$GPGGA,111822.250,4635.0561,N,00018.5877,E,1,8,187,202.08,M,202.08,M,,*48
$GPVTG,0.000,T,0,M,27.99,N,51.82,K*5b
$GPRMC,111822.500,A,4635.0540,N,00018.5888,E,27.39,155.60,260910,,*3a
$GPGGA,111822.500,4635.0540,N,00018.5888,E,1,8,187,202.74,M,202.74,M,,*49
$GPVTG,0.000,T,0,M,27.39,N,50.70,K*5d
$GPRMC,111822.750,A,4635.0521,N,00018.5899,E,27.02,157.60,260910,,*30
$GPGGA,111822.750,4635.0521,N,00018.5899,E,1,8,187,203.29,M,203.29,M,,*49
$GPVTG,0.000,T,0,M,27.02,N,50.02,K*50
$GPRMC,111823.000,A,4635.0503,N,00018.5907,E,26.16,158.90,260910,,*31
$GPGGA,111823.000,4635.0503,N,00018.5907,E,1,8,187,203.87,M,203.87,M,,*4c
$GPVTG,0.000,T,0,M,26.16,N,48.43,K*58
$GPRMC,111823.250,A,4635.0480,N,00018.5915,E,26.57,160.50,260910,,*3d
$GPGGA,111823.250,4635.0480,N,00018.5915,E,1,8,187,204.30,M,204.30,M,,*42
$GPVTG,0.000,T,0,M,26.57,N,49.19,K*53
$GPRMC,111823.500,A,4635.0463,N,00018.5924,E,26.14,162.10,260910,,*31
$GPGGA,111823.500,4635.0463,N,00018.5924,E,1,8,187,204.58,M,204.58,M,,*4f
$GPVTG,0.000,T,0,M,26.14,N,48.40,K*59
$GPRMC,111823.750,A,4635.0444,N,00018.5932,E,25.46,163.60,260910,,*36
$GPGGA,111823.750,4635.0444,N,00018.5932,E,1,8,187,204.58,M,204.58,M,,*4a
$GPVTG,0.000,T,0,M,25.46,N,47.14,K*53
$GPRMC,111824.000,A,4635.0427,N,00018.5938,E,25.81,165.20,260910,,*35
$GPGGA,111824.000,4635.0427,N,00018.5938,E,1,8,187,204.36,M,204.36,M,,*40
$GPVTG,0.000,T,0,M,25.81,N,47.79,K*53
$GPRMC,111824.250,A,4635.0408,N,00018.5944,E,25.46,166.80,260910,,*36
$GPGGA,111824.250,4635.0408,N,00018.5944,E,1,8,187,204.04,M,204.04,M,,*41
$GPVTG,0.000,T,0,M,25.46,N,47.14,K*53
$GPRMC,111824.500,A,4635.0390,N,00018.5949,E,25.23,168.70,260910,,*3d
$GPGGA,111824.500,4635.0390,N,00018.5949,E,1,8,187,203.82,M,203.82,M,,*48
$GPVTG,0.000,T,0,M,25.23,N,46.71,K*52
$GPRMC,111824.750,A,4635.0374,N,00018.5955,E,24.10,170.50,260910,,*37
$GPGGA,111824.750,4635.0374,N,00018.5955,E,1,8,187,203.83,M,203.83,M,,*48
$GPVTG,0.000,T,0,M,24.10,N,44.62,K*53
$GPRMC,111825.000,A,4635.0355,N,00018.5957,E,24.65,172.40,260910,,*34
$GPGGA,111825.000,4635.0355,N,00018.5957,E,1,8,187,203.59,M,203.59,M,,*4a
$GPVTG,0.000,T,0,M,24.65,N,45.63,K*51
$GPRMC,111825.250,A,4635.0336,N,00018.5958,E,25.35,175.00,260910,,*3e
$GPGGA,111825.250,4635.0336,N,00018.5958,E,1,8,187,203.05,M,203.05,M,,*47
$GPVTG,0.000,T,0,M,25.35,N,46.92,K*58
$GPRMC,111825.500,A,4635.0321,N,00018.5958,E,24.28,177.30,260910,,*36
$GPGGA,111825.500,4635.0321,N,00018.5958,E,1,8,187,202.75,M,202.75,M,,*43
$GPVTG,0.000,T,0,M,24.28,N,44.94,K*51
$GPRMC,111825.750,A,4635.0303,N,00018.5956,E,23.73,180.00,260910,,*3d
$GPGGA,111825.750,4635.0303,N,00018.5956,E,1,8,187,202.44,M,202.44,M,,*4a
$GPVTG,0.000,T,0,M,23.73,N,43.93,K*58
$GPRMC,111826.000,A,4635.0288,N,00018.5953,E,24.10,182.40,260910,,*3f
$GPGGA,111826.000,4635.0288,N,00018.5953,E,1,8,187,201.93,M,201.93,M,,*4c
$GPVTG,0.000,T,0,M,24.10,N,44.62,K*53
$GPRMC,111826.250,A,4635.0272,N,00018.5948,E,23.71,185.90,260910,,*3d
$GPGGA,111826.250,4635.0272,N,00018.5948,E,1,8,187,201.57,M,201.57,M,,*44
$GPVTG,0.000,T,0,M,23.71,N,43.90,K*59
$GPRMC,111826.500,A,4635.0255,N,00018.5943,E,22.49,189.10,260910,,*3f
$GPGGA,111826.500,4635.0255,N,00018.5943,E,1,8,187,201.33,M,201.33,M,,*48
$GPVTG,0.000,T,0,M,22.49,N,41.63,K*5d
$GPRMC,111826.750,A,4635.0241,N,00018.5936,E,23.31,192.40,260910,,*3e
$GPGGA,111826.750,4635.0241,N,00018.5936,E,1,8,187,201.29,M,201.29,M,,*48
$GPVTG,0.000,T,0,M,23.31,N,43.14,K*51
$GPRMC,111827.000,A,4635.0230,N,00018.5928,E,22.98,195.70,260910,,*32
$GPGGA,111827.000,4635.0230,N,00018.5928,E,1,8,187,201.23,M,201.23,M,,*42
$GPVTG,0.000,T,0,M,22.98,N,42.53,K*51
$GPRMC,111827.250,A,4635.0216,N,00018.5921,E,22.32,198.90,260910,,*3b
$GPGGA,111827.250,4635.0216,N,00018.5921,E,1,8,187,201.25,M,201.25,M,,*48
$GPVTG,0.000,T,0,M,22.32,N,41.31,K*56
$GPRMC,111827.500,A,4635.0205,N,00018.5911,E,21.93,202.40,260910,,*3d
$GPGGA,111827.500,4635.0205,N,00018.5911,E,1,8,187,201.24,M,201.24,M,,*4b
$GPVTG,0.000,T,0,M,21.93,N,40.59,K*51
$GPRMC,111827.750,A,4635.0195,N,00018.5897,E,21.38,205.60,260910,,*3b
$GPGGA,111827.750,4635.0195,N,00018.5897,E,1,8,187,201.22,M,201.22,M,,*49
$GPVTG,0.000,T,0,M,21.38,N,39.58,K*5f
$GPRMC,111828.000,A,4635.0186,N,00018.5884,E,20.64,208.50,260910,,*30
$GPGGA,111828.000,4635.0186,N,00018.5884,E,1,8,187,201.29,M,201.29,M,,*44
$GPVTG,0.000,T,0,M,20.64,N,38.21,K*58
$GPRMC,111828.250,A,4635.0179,N,00018.5870,E,20.31,211.00,260910,,*31
$GPGGA,111828.250,4635.0179,N,00018.5870,E,1,8,187,201.16,M,201.16,M,,*48
$GPVTG,0.000,T,0,M,20.31,N,37.60,K*52
$GPRMC,111828.500,A,4635.0170,N,00018.5856,E,19.36,213.30,260910,,*32
$GPGGA,111828.500,4635.0170,N,00018.5856,E,1,8,187,200.91,M,200.91,M,,*47
$GPVTG,0.000,T,0,M,19.36,N,35.84,K*57
$GPRMC,111828.750,A,4635.0161,N,00018.5840,E,19.28,216.40,260910,,*3f
$GPGGA,111828.750,4635.0161,N,00018.5840,E,1,8,187,200.77,M,200.77,M,,*47
$GPVTG,0.000,T,0,M,19.28,N,35.69,K*5b
$GPRMC,111829.000,A,4635.0152,N,00018.5825,E,19.15,219.10,260910,,*3b
$GPGGA,111829.000,4635.0152,N,00018.5825,E,1,8,187,200.52,M,200.52,M,,*47
$GPVTG,0.000,T,0,M,19.15,N,35.44,K*5a
$GPRMC,111829.250,A,4635.0150,N,00018.5810,E,19.05,221.60,260910,,*35
$GPGGA,111829.250,4635.0150,N,00018.5810,E,1,8,187,200.21,M,200.21,M,,*44
$GPVTG,0.000,T,0,M,19.05,N,35.26,K*5f
$GPRMC,111829.500,A,4635.0140,N,00018.5793,E,19.26,224.10,260910,,*31
$GPGGA,111829.500,4635.0140,N,00018.5793,E,1,8,187,199.83,M,199.83,M,,*43
$GPVTG,0.000,T,0,M,19.26,N,35.66,K*5a
$GPRMC,111829.750,A,4635.0131,N,00018.5775,E,19.98,226.80,260910,,*36
$GPGGA,111829.750,4635.0131,N,00018.5775,E,1,8,187,199.39,M,199.39,M,,*4a
$GPVTG,0.000,T,0,M,19.98,N,36.99,K*5c
$GPRMC,111830.000,A,4635.0124,N,00018.5755,E,19.87,229.20,260910,,*31
$GPGGA,111830.000,4635.0124,N,00018.5755,E,1,8,187,198.90,M,198.90,M,,*46
$GPVTG,0.000,T,0,M,19.87,N,36.77,K*52
$GPRMC,111830.250,A,4635.0115,N,00018.5737,E,20.18,231.60,260910,,*31
$GPGGA,111830.250,4635.0115,N,00018.5737,E,1,8,187,198.48,M,198.48,M,,*47
$GPVTG,0.000,T,0,M,20.18,N,37.35,K*59
$GPRMC,111830.500,A,4635.0106,N,00018.5719,E,20.29,233.30,260910,,*38
$GPGGA,111830.500,4635.0106,N,00018.5719,E,1,8,187,198.17,M,198.17,M,,*4b
$GPVTG,0.000,T,0,M,20.29,N,37.57,K*5f
$GPRMC,111830.750,A,4635.0099,N,00018.5700,E,20.25,234.90,260910,,*31
$GPGGA,111830.750,4635.0099,N,00018.5700,E,1,8,187,197.99,M,197.99,M,,*43
$GPVTG,0.000,T,0,M,20.25,N,37.49,K*5c
$GPRMC,111831.000,A,4635.0095,N,00018.5681,E,20.20,236.00,260910,,*38
$GPGGA,111831.000,4635.0095,N,00018.5681,E,1,8,187,197.84,M,197.84,M,,*44
$GPVTG,0.000,T,0,M,20.20,N,37.39,K*5e
$GPRMC,111831.250,A,4635.0087,N,00018.5662,E,20.31,237.20,260910,,*32
$GPGGA,111831.250,4635.0087,N,00018.5662,E,1,8,187,197.68,M,197.68,M,,*4d
$GPVTG,0.000,T,0,M,20.31,N,37.60,K*52
$GPRMC,111831.500,A,4635.0078,N,00018.5643,E,20.10,238.10,260910,,*3c
$GPGGA,111831.500,4635.0078,N,00018.5643,E,1,8,187,197.60,M,197.60,M,,*4c
$GPVTG,0.000,T,0,M,20.10,N,37.21,K*54
$GPRMC,111831.750,A,4635.0073,N,00018.5622,E,20.31,238.90,260910,,*3c
$GPGGA,111831.750,4635.0073,N,00018.5622,E,1,8,187,197.56,M,197.56,M,,*47
$GPVTG,0.000,T,0,M,20.31,N,37.60,K*52
$GPRMC,111832.000,A,4635.0067,N,00018.5603,E,20.33,239.40,260910,,*35
$GPGGA,111832.000,4635.0067,N,00018.5603,E,1,8,187,197.56,M,197.56,M,,*40
$GPVTG,0.000,T,0,M,20.33,N,37.64,K*54
$GPRMC,111832.250,A,4635.0060,N,00018.5585,E,20.25,240.00,260910,,*35
$GPGGA,111832.250,4635.0060,N,00018.5585,E,1,8,187,197.56,M,197.56,M,,*4d
$GPVTG,0.000,T,0,M,20.25,N,37.49,K*5c
$GPRMC,111832.500,A,4635.0052,N,00018.5567,E,20.57,239.80,260910,,*39
$GPGGA,111832.500,4635.0052,N,00018.5567,E,1,8,187,197.51,M,197.51,M,,*42
$GPVTG,0.000,T,0,M,20.57,N,38.07,K*5c
$GPRMC,111832.750,A,4635.0043,N,00018.5548,E,20.27,239.40,260910,,*38
$GPGGA,111832.750,4635.0043,N,00018.5548,E,1,8,187,197.47,M,197.47,M,,*48
$GPVTG,0.000,T,0,M,20.27,N,37.53,K*55
$GPRMC,111833.000,A,4635.0034,N,00018.5531,E,19.90,239.10,260910,,*36
$GPGGA,111833.000,4635.0034,N,00018.5531,E,1,8,187,197.40,M,197.40,M,,*45
$GPVTG,0.000,T,0,M,19.90,N,36.85,K*59
$GPRMC,111833.250,A,4635.0032,N,00018.5514,E,20.14,238.50,260910,,*33
$GPGGA,111833.250,4635.0032,N,00018.5514,E,1,8,187,197.50,M,197.50,M,,*43
$GPVTG,0.000,T,0,M,20.14,N,37.28,K*59
$GPRMC,111833.500,A,4635.0023,N,00018.5497,E,19.65,237.80,260910,,*35
$GPGGA,111833.500,4635.0023,N,00018.5497,E,1,8,187,197.60,M,197.60,M,,*4b
$GPVTG,0.000,T,0,M,19.65,N,36.38,K*55
$GPRMC,111833.750,A,4635.0014,N,00018.5481,E,19.69,237.40,260910,,*31
$GPGGA,111833.750,4635.0014,N,00018.5481,E,1,8,187,197.65,M,197.65,M,,*4f
$GPVTG,0.000,T,0,M,19.69,N,36.45,K*53
$GPRMC,111834.000,A,4635.0007,N,00018.5465,E,19.26,236.70,260910,,*35
$GPGGA,111834.000,4635.0007,N,00018.5465,E,1,8,187,197.60,M,197.60,M,,*42
$GPVTG,0.000,T,0,M,19.26,N,35.66,K*5a
$GPRMC,111834.250,A,4634.9998,N,00018.5449,E,19.36,236.00,260910,,*3d
$GPGGA,111834.250,4634.9998,N,00018.5449,E,1,8,187,197.48,M,197.48,M,,*4c
$GPVTG,0.000,T,0,M,19.36,N,35.84,K*57
$GPRMC,111834.500,A,4634.9996,N,00018.5434,E,19.26,235.80,260910,,*31
$GPGGA,111834.500,4634.9996,N,00018.5434,E,1,8,187,197.34,M,197.34,M,,*4a
$GPVTG,0.000,T,0,M,19.26,N,35.66,K*5a
$GPRMC,111834.750,A,4634.9987,N,00018.5419,E,18.86,234.60,260910,,*3d
$GPGGA,111834.750,4634.9987,N,00018.5419,E,1,8,187,197.06,M,197.06,M,,*42
$GPVTG,0.000,T,0,M,18.86,N,34.90,K*59
$GPRMC,111835.000,A,4634.9978,N,00018.5405,E,18.80,234.00,260910,,*33
$GPGGA,111835.000,4634.9978,N,00018.5405,E,1,8,187,196.79,M,196.79,M,,*4c
$GPVTG,0.000,T,0,M,18.80,N,34.80,K*5e
$GPRMC,111835.250,A,4634.9969,N,00018.5391,E,19.15,232.70,260910,,*32
$GPGGA,111835.250,4634.9969,N,00018.5391,E,1,8,187,196.41,M,196.41,M,,*41
$GPVTG,0.000,T,0,M,19.15,N,35.44,K*5a
$GPRMC,111835.500,A,4634.9958,N,00018.5377,E,19.50,231.10,260910,,*3e
$GPGGA,111835.500,4634.9958,N,00018.5377,E,1,8,187,196.05,M,196.05,M,,*49
$GPVTG,0.000,T,0,M,19.50,N,36.09,K*51
$GPRMC,111835.750,A,4634.9952,N,00018.5363,E,19.56,229.70,260910,,*3f
$GPGGA,111835.750,4634.9952,N,00018.5363,E,1,8,187,195.68,M,195.68,M,,*41
$GPVTG,0.000,T,0,M,19.56,N,36.20,K*5c
$GPRMC,111836.000,A,4634.9942,N,00018.5349,E,19.94,229.00,260910,,*3e
$GPGGA,111836.000,4634.9942,N,00018.5349,E,1,8,187,195.30,M,195.30,M,,*49
$GPVTG,0.000,T,0,M,19.94,N,36.92,K*5b
$GPRMC,111836.250,A,4634.9931,N,00018.5334,E,20.02,228.60,260910,,*35
$GPGGA,111836.250,4634.9931,N,00018.5334,E,1,8,187,194.74,M,194.74,M,,*40
$GPVTG,0.000,T,0,M,20.02,N,37.06,K*52
$GPRMC,111836.500,A,4634.9919,N,00018.5319,E,20.06,228.20,260910,,*32
$GPGGA,111836.500,4634.9919,N,00018.5319,E,1,8,187,194.37,M,194.37,M,,*47
$GPVTG,0.000,T,0,M,20.06,N,37.13,K*52
$GPRMC,111836.750,A,4634.9911,N,00018.5304,E,20.76,227.90,260910,,*32
$GPGGA,111836.750,4634.9911,N,00018.5304,E,1,8,187,194.00,M,194.00,M,,*44
$GPVTG,0.000,T,0,M,20.76,N,38.43,K*5f
$GPRMC,111837.000,A,4634.9899,N,00018.5289,E,20.88,227.70,260910,,*3b
$GPGGA,111837.000,4634.9899,N,00018.5289,E,1,8,187,193.60,M,193.60,M,,*42
$GPVTG,0.000,T,0,M,20.88,N,38.65,K*5a
$GPRMC,111837.250,A,4634.9892,N,00018.5273,E,21.13,227.90,260910,,*3f
$GPGGA,111837.250,4634.9892,N,00018.5273,E,1,8,187,193.17,M,193.17,M,,*4b
$GPVTG,0.000,T,0,M,21.13,N,39.11,K*5b
$GPRMC,111837.500,A,4634.9879,N,00018.5258,E,20.80,228.20,260910,,*3e
$GPGGA,111837.500,4634.9879,N,00018.5258,E,1,8,187,192.92,M,192.92,M,,*45
$GPVTG,0.000,T,0,M,20.80,N,38.50,K*54
$GPRMC,111837.750,A,4634.9872,N,00018.5242,E,21.15,228.50,260910,,*33
$GPGGA,111837.750,4634.9872,N,00018.5242,E,1,8,187,192.48,M,192.48,M,,*42
$GPVTG,0.000,T,0,M,21.15,N,39.15,K*59
$GPRMC,111838.000,A,4634.9863,N,00018.5226,E,20.92,229.00,260910,,*36
$GPGGA,111838.000,4634.9863,N,00018.5226,E,1,8,187,192.22,M,192.22,M,,*4d
$GPVTG,0.000,T,0,M,20.92,N,38.72,K*57
$GPRMC,111838.250,A,4634.9852,N,00018.5210,E,20.80,229.10,260910,,*34
$GPGGA,111838.250,4634.9852,N,00018.5210,E,1,8,187,191.93,M,191.93,M,,*4d
$GPVTG,0.000,T,0,M,20.80,N,38.50,K*54
$GPRMC,111838.500,A,4634.9843,N,00018.5195,E,21.03,229.40,260910,,*37
$GPGGA,111838.500,4634.9843,N,00018.5195,E,1,8,187,191.72,M,191.72,M,,*41
$GPVTG,0.000,T,0,M,21.03,N,38.93,K*51
$GPRMC,111838.750,A,4634.9834,N,00018.5179,E,20.82,229.60,260910,,*38
$GPGGA,111838.750,4634.9834,N,00018.5179,E,1,8,187,191.58,M,191.58,M,,*44
$GPVTG,0.000,T,0,M,20.82,N,38.54,K*52
$GPRMC,111839.000,A,4634.9827,N,00018.5163,E,21.29,229.80,260910,,*3c
$GPGGA,111839.000,4634.9827,N,00018.5163,E,1,8,187,191.58,M,191.58,M,,*4e
$GPVTG,0.000,T,0,M,21.29,N,39.40,K*56
$GPRMC,111839.250,A,4634.9818,N,00018.5145,E,21.95,230.30,260910,,*37
$GPGGA,111839.250,4634.9818,N,00018.5145,E,1,8,187,191.51,M,191.51,M,,*41
$GPVTG,0.000,T,0,M,21.95,N,40.62,K*5f
$GPRMC,111839.500,A,4634.9807,N,00018.5127,E,23.17,230.60,260910,,*32
$GPGGA,111839.500,4634.9807,N,00018.5127,E,1,8,187,191.55,M,191.55,M,,*49
$GPVTG,0.000,T,0,M,23.17,N,42.89,K*50
$GPRMC,111839.750,A,4634.9798,N,00018.5108,E,22.84,231.00,260910,,*3d
$GPGGA,111839.750,4634.9798,N,00018.5108,E,1,8,187,191.62,M,191.62,M,,*4a
$GPVTG,0.000,T,0,M,22.84,N,42.28,K*50
$GPRMC,111840.000,A,4634.9789,N,00018.5089,E,23.13,231.70,260910,,*31
$GPGGA,111840.000,4634.9789,N,00018.5089,E,1,8,187,191.76,M,191.76,M,,*4e
$GPVTG,0.000,T,0,M,23.13,N,42.82,K*5f
$GPRMC,111840.250,A,4634.9781,N,00018.5069,E,23.40,232.40,260910,,*36
$GPGGA,111840.250,4634.9781,N,00018.5069,E,1,8,187,191.92,M,191.92,M,,*4f
$GPVTG,0.000,T,0,M,23.40,N,43.32,K*53
$GPRMC,111840.500,A,4634.9769,N,00018.5050,E,23.58,232.80,260910,,*3d
$GPGGA,111840.500,4634.9769,N,00018.5050,E,1,8,187,192.27,M,192.27,M,,*41
$GPVTG,0.000,T,0,M,23.58,N,43.65,K*58
$GPRMC,111840.750,A,4634.9761,N,00018.5030,E,23.46,233.00,260910,,*32
$GPGGA,111840.750,4634.9761,N,00018.5030,E,1,8,187,192.53,M,192.53,M,,*48
$GPVTG,0.000,T,0,M,23.46,N,43.43,K*53
$GPRMC,111841.000,A,4634.9752,N,00018.5010,E,24.06,233.20,260910,,*32
$GPGGA,111841.000,4634.9752,N,00018.5010,E,1,8,187,192.81,M,192.81,M,,*49
$GPVTG,0.000,T,0,M,24.06,N,44.55,K*50
$GPRMC,111841.250,A,4634.9743,N,00018.4991,E,23.50,233.30,260910,,*31
$GPGGA,111841.250,4634.9743,N,00018.4991,E,1,8,187,193.19,M,193.19,M,,*4f
$GPVTG,0.000,T,0,M,23.50,N,43.50,K*56
$GPRMC,111841.500,A,4634.9732,N,00018.4972,E,23.54,232.80,260910,,*36
$GPGGA,111841.500,4634.9732,N,00018.4972,E,1,8,187,193.61,M,193.61,M,,*46
$GPVTG,0.000,T,0,M,23.54,N,43.58,K*5a
$GPRMC,111841.750,A,4634.9725,N,00018.4954,E,23.31,232.40,260910,,*3c
$GPGGA,111841.750,4634.9725,N,00018.4954,E,1,8,187,194.06,M,194.06,M,,*43
$GPVTG,0.000,T,0,M,23.31,N,43.14,K*51
$GPRMC,111842.000,A,4634.9716,N,00018.4936,E,23.25,231.80,260910,,*33
$GPGGA,111842.000,4634.9716,N,00018.4936,E,1,8,187,194.59,M,194.59,M,,*46
$GPVTG,0.000,T,0,M,23.25,N,43.04,K*55
