$GPRMC,121828.500,A,4452.7696,N,00049.5712,W,18.70,3.60,150910,,*26
$GPGGA,121828.500,4452.7696,N,00049.5712,W,1,8,184,52.65,M,52.65,M,,*55
$GPVTG,0.000,T,0,M,18.70,N,34.62,K*5d
$GPRMC,121828.750,A,4452.7711,N,00049.5724,W,22.08,345.80,150910,,*23
$GPGGA,121828.750,4452.7711,N,00049.5724,W,1,8,184,53.46,M,53.46,M,,*59
$GPVTG,0.000,T,0,M,22.08,N,40.88,K*5c
$GPRMC,121829.000,A,4452.7730,N,00049.5737,W,24.84,339.50,150910,,*25
$GPGGA,121829.000,4452.7730,N,00049.5737,W,1,8,184,54.16,M,54.16,M,,*5b
$GPVTG,0.000,T,0,M,24.84,N,45.99,K*5b
$GPRMC,121829.250,A,4452.7747,N,00049.5752,W,27.54,335.70,150910,,*21
$GPGGA,121829.250,4452.7747,N,00049.5752,W,1,8,184,54.58,M,54.58,M,,*5f
$GPVTG,0.000,T,0,M,27.54,N,50.99,K*51
$GPRMC,121829.500,A,4452.7762,N,00049.5767,W,28.48,333.40,150910,,*25
$GPGGA,121829.500,4452.7762,N,00049.5767,W,1,8,184,55.08,M,55.08,M,,*5c
$GPVTG,0.000,T,0,M,28.48,N,52.71,K*57
$GPRMC,121829.750,A,4452.7784,N,00049.5783,W,29.12,331.00,150910,,*28
$GPGGA,121829.750,4452.7784,N,00049.5783,W,1,8,184,55.83,M,55.83,M,,*59
$GPVTG,0.000,T,0,M,29.12,N,53.90,K*57
$GPRMC,121830.000,A,4452.7799,N,00049.5799,W,30.60,329.50,150910,,*24
$GPGGA,121830.000,4452.7799,N,00049.5799,W,1,8,184,56.71,M,56.71,M,,*54
$GPVTG,0.000,T,0,M,30.60,N,56.64,K*54
$GPRMC,121830.250,A,4452.7822,N,00049.5816,W,31.35,328.90,150910,,*28
$GPGGA,121830.250,4452.7822,N,00049.5816,W,1,8,184,57.63,M,57.63,M,,*54
$GPVTG,0.000,T,0,M,31.35,N,58.04,K*5d
$GPRMC,121830.500,A,4452.7839,N,00049.5832,W,31.30,329.10,150910,,*2a
$GPGGA,121830.500,4452.7839,N,00049.5832,W,1,8,184,58.73,M,58.73,M,,*5a
$GPVTG,0.000,T,0,M,31.30,N,57.93,K*59
$GPRMC,121830.750,A,4452.7863,N,00049.5847,W,33.28,330.30,150910,,*21
$GPGGA,121830.750,4452.7863,N,00049.5847,W,1,8,184,59.81,M,59.81,M,,*50
$GPVTG,0.000,T,0,M,33.28,N,61.60,K*5b
$GPRMC,121831.000,A,4452.7886,N,00049.5860,W,32.52,331.60,150910,,*24
$GPGGA,121831.000,4452.7886,N,00049.5860,W,1,8,184,60.82,M,60.82,M,,*5d
$GPVTG,0.000,T,0,M,32.52,N,60.20,K*52
$GPRMC,121831.250,A,4452.7907,N,00049.5873,W,33.40,333.50,150910,,*2a
$GPGGA,121831.250,4452.7907,N,00049.5873,W,1,8,184,61.83,M,61.83,M,,*50
$GPVTG,0.000,T,0,M,33.40,N,61.82,K*59
$GPRMC,121831.500,A,4452.7930,N,00049.5885,W,33.22,336.00,150910,,*21
$GPGGA,121831.500,4452.7930,N,00049.5885,W,1,8,184,62.93,M,62.93,M,,*5f
$GPVTG,0.000,T,0,M,33.22,N,61.49,K*5a
$GPRMC,121831.750,A,4452.7954,N,00049.5895,W,34.04,339.60,150910,,*2f
$GPGGA,121831.750,4452.7954,N,00049.5895,W,1,8,184,64.24,M,64.24,M,,*5b
$GPVTG,0.000,T,0,M,34.04,N,63.01,K*57
$GPRMC,121832.000,A,4452.7982,N,00049.5904,W,33.69,342.50,150910,,*2f
$GPGGA,121832.000,4452.7982,N,00049.5904,W,1,8,184,65.65,M,65.65,M,,*58
$GPVTG,0.000,T,0,M,33.69,N,62.36,K*5e
$GPRMC,121832.250,A,4452.8006,N,00049.5910,W,33.76,345.90,150910,,*22
$GPGGA,121832.250,4452.8006,N,00049.5910,W,1,8,184,67.07,M,67.07,M,,*50
$GPVTG,0.000,T,0,M,33.76,N,62.50,K*50
$GPRMC,121832.500,A,4452.8026,N,00049.5915,W,35.49,347.00,150910,,*26
$GPGGA,121832.500,4452.8026,N,00049.5915,W,1,8,184,67.80,M,67.80,M,,*55
$GPVTG,0.000,T,0,M,35.49,N,65.70,K*5f
$GPRMC,121832.750,A,4452.8057,N,00049.5921,W,35.49,348.70,150910,,*28
$GPGGA,121832.750,4452.8057,N,00049.5921,W,1,8,184,68.39,M,68.39,M,,*53
$GPVTG,0.000,T,0,M,35.49,N,65.70,K*5f
$GPRMC,121833.000,A,4452.8081,N,00049.5922,W,35.32,354.00,150910,,*25
$GPGGA,121833.000,4452.8081,N,00049.5922,W,1,8,184,69.39,M,69.39,M,,*58
$GPVTG,0.000,T,0,M,35.32,N,65.38,K*5f
$GPRMC,121833.250,A,4452.8107,N,00049.5918,W,34.97,359.30,150910,,*24
$GPGGA,121833.250,4452.8107,N,00049.5918,W,1,8,184,70.41,M,70.41,M,,*59
$GPVTG,0.000,T,0,M,34.97,N,64.73,K*5f
$GPRMC,121833.500,A,4452.8127,N,00049.5910,W,34.11,4.80,150910,,*22
$GPGGA,121833.500,4452.8127,N,00049.5910,W,1,8,184,71.43,M,71.43,M,,*51
$GPVTG,0.000,T,0,M,34.11,N,63.15,K*56
$GPRMC,121833.750,A,4452.8151,N,00049.5900,W,34.29,9.80,150910,,*23
$GPGGA,121833.750,4452.8151,N,00049.5900,W,1,8,184,72.39,M,72.39,M,,*56
$GPVTG,0.000,T,0,M,34.29,N,63.47,K*5a
$GPRMC,121834.000,A,4452.8174,N,00049.5888,W,34.97,14.10,150910,,*10
$GPGGA,121834.000,4452.8174,N,00049.5888,W,1,8,184,73.34,M,73.34,M,,*55
$GPVTG,0.000,T,0,M,34.97,N,64.73,K*5f
$GPRMC,121834.250,A,4452.8195,N,00049.5872,W,35.05,18.90,150910,,*13
$GPGGA,121834.250,4452.8195,N,00049.5872,W,1,8,184,74.15,M,74.15,M,,*58
$GPVTG,0.000,T,0,M,35.05,N,64.88,K*51
$GPRMC,121834.500,A,4452.8213,N,00049.5852,W,34.50,24.10,150910,,*18
$GPGGA,121834.500,4452.8213,N,00049.5852,W,1,8,184,75.15,M,75.15,M,,*55
$GPVTG,0.000,T,0,M,34.50,N,63.87,K*58
$GPRMC,121834.750,A,4452.8233,N,00049.5832,W,34.08,28.30,150910,,*18
$GPGGA,121834.750,4452.8233,N,00049.5832,W,1,8,184,76.04,M,76.04,M,,*56
$GPVTG,0.000,T,0,M,34.08,N,63.08,K*52
$GPRMC,121835.000,A,4452.8249,N,00049.5809,W,34.83,32.70,150910,,*12
$GPGGA,121835.000,4452.8249,N,00049.5809,W,1,8,184,76.84,M,76.84,M,,*50
$GPVTG,0.000,T,0,M,34.83,N,64.48,K*52
$GPRMC,121835.250,A,4452.8266,N,00049.5784,W,34.64,37.30,150910,,*1a
$GPGGA,121835.250,4452.8266,N,00049.5784,W,1,8,184,77.69,M,77.69,M,,*50
$GPVTG,0.000,T,0,M,34.64,N,64.12,K*54
$GPRMC,121835.500,A,4452.8284,N,00049.5758,W,34.23,40.90,150910,,*1c
$GPGGA,121835.500,4452.8284,N,00049.5758,W,1,8,184,78.65,M,78.65,M,,*5f
$GPVTG,0.000,T,0,M,34.23,N,63.37,K*57
$GPRMC,121836.000,A,4452.8315,N,00049.5706,W,35.01,45.60,150910,,*13
$GPGGA,121836.000,4452.8315,N,00049.5706,W,1,8,184,80.01,M,80.01,M,,*5b
$GPVTG,0.000,T,0,M,35.01,N,64.80,K*5d
$GPRMC,121836.250,A,4452.8331,N,00049.5680,W,34.64,47.10,150910,,*1a
$GPGGA,121836.250,4452.8331,N,00049.5680,W,1,8,184,80.58,M,80.58,M,,*55
$GPVTG,0.000,T,0,M,34.64,N,64.12,K*54
$GPRMC,121836.500,A,4452.8350,N,00049.5654,W,35.61,48.10,150910,,*1d
$GPGGA,121836.500,4452.8350,N,00049.5654,W,1,8,184,81.07,M,81.07,M,,*59
$GPVTG,0.000,T,0,M,35.61,N,65.92,K*59
$GPRMC,121836.750,A,4452.8366,N,00049.5628,W,35.44,48.80,150910,,*1a
$GPGGA,121836.750,4452.8366,N,00049.5628,W,1,8,184,81.48,M,81.48,M,,*50
$GPVTG,0.000,T,0,M,35.44,N,65.60,K*53
$GPRMC,121837.000,A,4452.8381,N,00049.5602,W,35.84,48.80,150910,,*14
$GPGGA,121837.000,4452.8381,N,00049.5602,W,1,8,184,81.91,M,81.91,M,,*52
$GPVTG,0.000,T,0,M,35.84,N,66.35,K*5c
$GPRMC,121837.250,A,4452.8397,N,00049.5576,W,36.19,48.30,150910,,*18
$GPGGA,121837.250,4452.8397,N,00049.5576,W,1,8,184,82.13,M,82.13,M,,*52
$GPVTG,0.000,T,0,M,36.19,N,67.00,K*5c
$GPRMC,121837.500,A,4452.8415,N,00049.5552,W,36.08,47.90,150910,,*14
$GPGGA,121837.500,4452.8415,N,00049.5552,W,1,8,184,82.44,M,82.44,M,,*5b
$GPVTG,0.000,T,0,M,36.08,N,66.78,K*52
$GPRMC,121837.750,A,4452.8432,N,00049.5528,W,35.92,47.30,150910,,*11
$GPGGA,121837.750,4452.8432,N,00049.5528,W,1,8,184,82.84,M,82.84,M,,*54
$GPVTG,0.000,T,0,M,35.92,N,66.50,K*58
$GPRMC,121838.000,A,4452.8448,N,00049.5504,W,35.77,46.70,150910,,*11
$GPGGA,121838.000,4452.8448,N,00049.5504,W,1,8,184,83.31,M,83.31,M,,*5a
$GPVTG,0.000,T,0,M,35.77,N,66.21,K*55
$GPRMC,121838.250,A,4452.8466,N,00049.5479,W,35.83,46.00,150910,,*1d
$GPGGA,121838.250,4452.8466,N,00049.5479,W,1,8,184,83.87,M,83.87,M,,*5a
$GPVTG,0.000,T,0,M,35.83,N,66.32,K*5c
$GPRMC,121838.500,A,4452.8486,N,00049.5454,W,35.98,45.70,150910,,*10
$GPGGA,121838.500,4452.8486,N,00049.5454,W,1,8,184,84.37,M,84.37,M,,*59
$GPVTG,0.000,T,0,M,35.98,N,66.60,K*51
$GPRMC,121838.750,A,4452.8506,N,00049.5430,W,36.04,45.60,150910,,*1b
$GPGGA,121838.750,4452.8506,N,00049.5430,W,1,8,184,84.94,M,84.94,M,,*55
$GPVTG,0.000,T,0,M,36.04,N,66.71,K*57
$GPRMC,121839.000,A,4452.8519,N,00049.5405,W,36.35,46.10,150910,,*16
$GPGGA,121839.000,4452.8519,N,00049.5405,W,1,8,184,85.41,M,85.41,M,,*5e
$GPVTG,0.000,T,0,M,36.35,N,67.29,K*59
$GPRMC,121839.250,A,4452.8537,N,00049.5378,W,36.00,47.00,150910,,*16
$GPGGA,121839.250,4452.8537,N,00049.5378,W,1,8,184,85.82,M,85.82,M,,*58
$GPVTG,0.000,T,0,M,36.00,N,66.64,K*57
$GPRMC,121839.500,A,4452.8557,N,00049.5352,W,36.86,47.30,150910,,*17
$GPGGA,121839.500,4452.8557,N,00049.5352,W,1,8,184,86.28,M,86.28,M,,*54
$GPVTG,0.000,T,0,M,36.86,N,68.22,K*55
$GPRMC,121839.750,A,4452.8573,N,00049.5325,W,36.68,48.60,150910,,*1c
$GPGGA,121839.750,4452.8573,N,00049.5325,W,1,8,184,86.63,M,86.63,M,,*55
$GPVTG,0.000,T,0,M,36.68,N,67.90,K*53
$GPRMC,121840.000,A,4452.8588,N,00049.5295,W,37.15,50.10,150910,,*1b
$GPGGA,121840.000,4452.8588,N,00049.5295,W,1,8,184,87.01,M,87.01,M,,*57
$GPVTG,0.000,T,0,M,37.15,N,68.76,K*5f
$GPRMC,121840.250,A,4452.8603,N,00049.5265,W,37.11,52.10,150910,,*15
$GPGGA,121840.250,4452.8603,N,00049.5265,W,1,8,184,87.54,M,87.54,M,,*5f
$GPVTG,0.000,T,0,M,37.11,N,68.69,K*55
$GPRMC,121840.500,A,4452.8619,N,00049.5233,W,37.46,55.10,150910,,*1a
$GPGGA,121840.500,4452.8619,N,00049.5233,W,1,8,184,88.05,M,88.05,M,,*55
$GPVTG,0.000,T,0,M,37.46,N,69.34,K*5e
$GPRMC,121840.750,A,4452.8634,N,00049.5201,W,37.48,58.10,150910,,*10
$GPGGA,121840.750,4452.8634,N,00049.5201,W,1,8,184,88.61,M,88.61,M,,*5c
$GPVTG,0.000,T,0,M,37.48,N,69.37,K*53
$GPRMC,121841.000,A,4452.8646,N,00049.5167,W,37.87,60.90,150910,,*15
$GPGGA,121841.000,4452.8646,N,00049.5167,W,1,8,184,89.22,M,89.22,M,,*59
$GPVTG,0.000,T,0,M,37.87,N,70.09,K*55
$GPRMC,121841.250,A,4452.8656,N,00049.5133,W,38.02,63.40,150910,,*1e
$GPGGA,121841.250,4452.8656,N,00049.5133,W,1,8,184,89.83,M,89.83,M,,*5e
$GPVTG,0.000,T,0,M,38.02,N,70.38,K*55
$GPRMC,121841.500,A,4452.8667,N,00049.5097,W,38.86,68.40,150910,,*16
$GPGGA,121841.500,4452.8667,N,00049.5097,W,1,8,184,90.27,M,90.27,M,,*51
$GPVTG,0.000,T,0,M,38.86,N,71.93,K*59
$GPRMC,121841.750,A,4452.8672,N,00049.5059,W,39.63,73.40,150910,,*17
$GPGGA,121841.750,4452.8672,N,00049.5059,W,1,8,184,90.80,M,90.80,M,,*50
$GPVTG,0.000,T,0,M,39.63,N,73.37,K*5f
$GPRMC,121842.000,A,4452.8678,N,00049.5023,W,38.72,79.20,150910,,*1c
$GPGGA,121842.000,4452.8678,N,00049.5023,W,1,8,184,91.10,M,91.10,M,,*56
$GPVTG,0.000,T,0,M,38.72,N,71.68,K*56
$GPRMC,121842.250,A,4452.8680,N,00049.4986,W,39.23,86.20,150910,,*1e
$GPGGA,121842.250,4452.8680,N,00049.4986,W,1,8,184,91.49,M,91.49,M,,*51
$GPVTG,0.000,T,0,M,39.23,N,72.61,K*59
$GPRMC,121842.500,A,4452.8677,N,00049.4948,W,39.42,91.30,150910,,*16
$GPGGA,121842.500,4452.8677,N,00049.4948,W,1,8,184,91.91,M,91.91,M,,*59
$GPVTG,0.000,T,0,M,39.42,N,72.97,K*57
$GPRMC,121842.750,A,4452.8672,N,00049.4912,W,40.08,96.80,150910,,*17
$GPGGA,121842.750,4452.8672,N,00049.4912,W,1,8,184,91.84,M,91.84,M,,*54
$GPVTG,0.000,T,0,M,40.08,N,74.20,K*5d
$GPRMC,121843.000,A,4452.8661,N,00049.4875,W,40.63,102.30,150910,,*2c
$GPGGA,121843.000,4452.8661,N,00049.4875,W,1,8,184,91.82,M,91.82,M,,*55
$GPVTG,0.000,T,0,M,40.63,N,75.20,K*51
$GPRMC,121843.250,A,4452.8650,N,00049.4841,W,41.11,108.90,150910,,*2a
$GPGGA,121843.250,4452.8650,N,00049.4841,W,1,8,184,91.62,M,91.62,M,,*57
$GPVTG,0.000,T,0,M,41.11,N,76.10,K*55
$GPRMC,121843.500,A,4452.8637,N,00049.4807,W,40.86,114.20,150910,,*22
$GPGGA,121843.500,4452.8637,N,00049.4807,W,1,8,184,91.35,M,91.35,M,,*56
$GPVTG,0.000,T,0,M,40.86,N,75.64,K*5a
$GPRMC,121843.750,A,4452.8621,N,00049.4774,W,41.83,119.00,150910,,*22
$GPGGA,121843.750,4452.8621,N,00049.4774,W,1,8,184,90.81,M,90.81,M,,*5d
$GPVTG,0.000,T,0,M,41.83,N,77.43,K*59
$GPRMC,121844.000,A,4452.8601,N,00049.4744,W,42.71,126.50,150910,,*21
$GPGGA,121844.000,4452.8601,N,00049.4744,W,1,8,184,90.55,M,90.55,M,,*59
$GPVTG,0.000,T,0,M,42.71,N,79.05,K*5b
$GPRMC,121844.250,A,4452.8578,N,00049.4717,W,41.85,133.10,150910,,*25
$GPGGA,121844.250,4452.8578,N,00049.4717,W,1,8,184,90.54,M,90.54,M,,*55
$GPVTG,0.000,T,0,M,41.85,N,77.47,K*5b
$GPRMC,121844.500,A,4452.8556,N,00049.4694,W,41.31,139.10,150910,,*24
$GPGGA,121844.500,4452.8556,N,00049.4694,W,1,8,184,90.87,M,90.87,M,,*51
$GPVTG,0.000,T,0,M,41.31,N,76.46,K*54
$GPRMC,121844.750,A,4452.8531,N,00049.4674,W,41.46,143.70,150910,,*27
$GPGGA,121844.750,4452.8531,N,00049.4674,W,1,8,184,91.22,M,91.22,M,,*59
$GPVTG,0.000,T,0,M,41.46,N,76.75,K*54
$GPRMC,121845.000,A,4452.8504,N,00049.4653,W,41.02,147.10,150910,,*25
$GPGGA,121845.000,4452.8504,N,00049.4653,W,1,8,184,91.56,M,91.56,M,,*59
$GPVTG,0.000,T,0,M,41.02,N,75.92,K*5e
$GPRMC,121845.250,A,4452.8477,N,00049.4634,W,41.33,150.30,150910,,*20
$GPGGA,121845.250,4452.8477,N,00049.4634,W,1,8,184,91.92,M,91.92,M,,*5a
$GPVTG,0.000,T,0,M,41.33,N,76.50,K*51
$GPRMC,121845.500,A,4452.8453,N,00049.4617,W,40.00,152.80,150910,,*2d
$GPGGA,121845.500,4452.8453,N,00049.4617,W,1,8,184,92.44,M,92.44,M,,*5f
$GPVTG,0.000,T,0,M,40.00,N,74.05,K*52
$GPRMC,121845.750,A,4452.8428,N,00049.4601,W,39.81,154.40,150910,,*2c
$GPGGA,121845.750,4452.8428,N,00049.4601,W,1,8,184,93.09,M,93.09,M,,*53
$GPVTG,0.000,T,0,M,39.81,N,73.69,K*58
$GPRMC,121846.000,A,4452.8401,N,00049.4585,W,39.23,155.60,150910,,*22
$GPGGA,121846.000,4452.8401,N,00049.4585,W,1,8,184,93.77,M,93.77,M,,*56
$GPVTG,0.000,T,0,M,39.23,N,72.61,K*59
$GPRMC,121846.250,A,4452.8374,N,00049.4569,W,38.95,156.90,150910,,*22
$GPGGA,121846.250,4452.8374,N,00049.4569,W,1,8,184,94.36,M,94.36,M,,*56
$GPVTG,0.000,T,0,M,38.95,N,72.11,K*52
$GPRMC,121846.500,A,4452.8348,N,00049.4555,W,38.02,157.50,150910,,*23
$GPGGA,121846.500,4452.8348,N,00049.4555,W,1,8,184,95.02,M,95.02,M,,*54
$GPVTG,0.000,T,0,M,38.02,N,70.38,K*55
$GPRMC,121846.750,A,4452.8321,N,00049.4540,W,37.67,158.00,150910,,*29
$GPGGA,121846.750,4452.8321,N,00049.4540,W,1,8,184,95.68,M,95.68,M,,*58
$GPVTG,0.000,T,0,M,37.67,N,69.73,K*5e
$GPRMC,121847.000,A,4452.8298,N,00049.4527,W,36.87,158.70,150910,,*20
$GPGGA,121847.000,4452.8298,N,00049.4527,W,1,8,184,96.26,M,96.26,M,,*59
$GPVTG,0.000,T,0,M,36.87,N,68.26,K*50
$GPRMC,121847.250,A,4452.8274,N,00049.4514,W,36.97,159.80,150910,,*2a
$GPGGA,121847.250,4452.8274,N,00049.4514,W,1,8,184,96.86,M,96.86,M,,*5c
$GPVTG,0.000,T,0,M,36.97,N,68.44,K*55
$GPRMC,121847.500,A,4452.8247,N,00049.4501,W,35.73,161.60,150910,,*20
$GPGGA,121847.500,4452.8247,N,00049.4501,W,1,8,184,97.60,M,97.60,M,,*5a
$GPVTG,0.000,T,0,M,35.73,N,66.14,K*57
$GPRMC,121847.750,A,4452.8226,N,00049.4492,W,35.51,163.20,150910,,*2d
$GPGGA,121847.750,4452.8226,N,00049.4492,W,1,8,184,98.27,M,98.27,M,,*51
$GPVTG,0.000,T,0,M,35.51,N,65.74,K*52
$GPRMC,121848.000,A,4452.8199,N,00049.4484,W,34.11,165.50,150910,,*24
$GPGGA,121848.000,4452.8199,N,00049.4484,W,1,8,184,98.83,M,98.83,M,,*5c
$GPVTG,0.000,T,0,M,34.11,N,63.15,K*56
$GPRMC,121848.250,A,4452.8178,N,00049.4479,W,33.65,168.20,150910,,*20
$GPGGA,121848.250,4452.8178,N,00049.4479,W,1,8,184,99.33,M,99.33,M,,*56
$GPVTG,0.000,T,0,M,33.65,N,62.29,K*5c
$GPRMC,121848.500,A,4452.8156,N,00049.4476,W,32.70,172.60,150910,,*2b
$GPGGA,121848.500,4452.8156,N,00049.4476,W,1,8,184,99.71,M,99.71,M,,*57
$GPVTG,0.000,T,0,M,32.70,N,60.52,K*57
$GPRMC,121848.750,A,4452.8132,N,00049.4475,W,31.53,175.60,150910,,*28
$GPGGA,121848.750,4452.8132,N,00049.4475,W,1,8,184,100.17,M,100.17,M,,*51
$GPVTG,0.000,T,0,M,31.53,N,58.36,K*5c
$GPRMC,121849.000,A,4452.8111,N,00049.4478,W,30.42,179.90,150910,,*25
$GPGGA,121849.000,4452.8111,N,00049.4478,W,1,8,184,100.55,M,100.55,M,,*5e
$GPVTG,0.000,T,0,M,30.42,N,56.31,K*54
$GPRMC,121849.250,A,4452.8088,N,00049.4483,W,30.25,184.20,150910,,*2f
$GPGGA,121849.250,4452.8088,N,00049.4483,W,1,8,184,100.94,M,100.94,M,,*5c
$GPVTG,0.000,T,0,M,30.25,N,55.99,K*54
$GPRMC,121849.500,A,4452.8072,N,00049.4491,W,29.53,187.90,150910,,*2a
$GPGGA,121849.500,4452.8072,N,00049.4491,W,1,8,184,101.03,M,101.03,M,,*58
$GPVTG,0.000,T,0,M,29.53,N,54.66,K*5c
$GPRMC,121849.750,A,4452.8050,N,00049.4499,W,29.06,191.50,150910,,*2e
$GPGGA,121849.750,4452.8050,N,00049.4499,W,1,8,184,101.17,M,101.17,M,,*57
$GPVTG,0.000,T,0,M,29.06,N,53.79,K*55
$GPRMC,121850.000,A,4452.8037,N,00049.4510,W,27.62,195.90,150910,,*21
$GPGGA,121850.000,4452.8037,N,00049.4510,W,1,8,184,101.38,M,101.38,M,,*5c
$GPVTG,0.000,T,0,M,27.62,N,51.13,K*57
$GPRMC,121850.250,A,4452.8018,N,00049.4522,W,27.56,199.60,150910,,*2e
$GPGGA,121850.250,4452.8018,N,00049.4522,W,1,8,184,101.48,M,101.48,M,,*57
$GPVTG,0.000,T,0,M,27.56,N,51.02,K*50
$GPRMC,121850.500,A,4452.8000,N,00049.4536,W,27.33,203.30,150910,,*26
$GPGGA,121850.500,4452.8000,N,00049.4536,W,1,8,184,101.50,M,101.50,M,,*59
$GPVTG,0.000,T,0,M,27.33,N,50.59,K*5c
$GPRMC,121850.750,A,4452.7989,N,00049.4549,W,27.35,206.80,150910,,*26
$GPGGA,121850.750,4452.7989,N,00049.4549,W,1,8,184,101.44,M,101.44,M,,*51
$GPVTG,0.000,T,0,M,27.35,N,50.63,K*53
$GPRMC,121851.000,A,4452.7975,N,00049.4564,W,27.21,210.50,150910,,*26
$GPGGA,121851.000,4452.7975,N,00049.4564,W,1,8,184,101.43,M,101.43,M,,*5e
$GPVTG,0.000,T,0,M,27.21,N,50.38,K*58
$GPRMC,121851.250,A,4452.7960,N,00049.4580,W,26.65,213.90,150910,,*21
$GPGGA,121851.250,4452.7960,N,00049.4580,W,1,8,184,101.41,M,101.41,M,,*57
$GPVTG,0.000,T,0,M,26.65,N,49.33,K*5a
$GPRMC,121851.500,A,4452.7953,N,00049.4596,W,27.10,217.40,150910,,*2e
$GPGGA,121851.500,4452.7953,N,00049.4596,W,1,8,184,101.37,M,101.37,M,,*52
$GPVTG,0.000,T,0,M,27.10,N,50.16,K*56
$GPRMC,121851.750,A,4452.7940,N,00049.4614,W,25.91,220.30,150910,,*2a
$GPGGA,121851.750,4452.7940,N,00049.4614,W,1,8,184,101.28,M,101.28,M,,*5e
$GPVTG,0.000,T,0,M,25.91,N,47.96,K*53
$GPRMC,121852.000,A,4452.7929,N,00049.4633,W,25.74,222.80,150910,,*23
$GPGGA,121852.000,4452.7929,N,00049.4633,W,1,8,184,101.11,M,101.11,M,,*55
$GPVTG,0.000,T,0,M,25.74,N,47.64,K*55
$GPRMC,121852.250,A,4452.7923,N,00049.4652,W,26.01,225.10,150910,,*26
$GPGGA,121852.250,4452.7923,N,00049.4652,W,1,8,184,101.04,M,101.04,M,,*5f
$GPVTG,0.000,T,0,M,26.01,N,48.14,K*5c
$GPRMC,121852.500,A,4452.7912,N,00049.4674,W,26.05,228.10,150910,,*2b
$GPGGA,121852.500,4452.7912,N,00049.4674,W,1,8,184,101.04,M,101.04,M,,*5b
$GPVTG,0.000,T,0,M,26.05,N,48.22,K*5d
$GPRMC,121852.750,A,4452.7906,N,00049.4696,W,26.05,230.50,150910,,*28
$GPGGA,121852.750,4452.7906,N,00049.4696,W,1,8,184,101.07,M,101.07,M,,*55
$GPVTG,0.000,T,0,M,26.05,N,48.22,K*5d
$GPRMC,121853.000,A,4452.7897,N,00049.4718,W,26.42,232.70,150910,,*26
$GPGGA,121853.000,4452.7897,N,00049.4718,W,1,8,184,101.07,M,101.07,M,,*58
$GPVTG,0.000,T,0,M,26.42,N,48.90,K*57
$GPRMC,121853.250,A,4452.7886,N,00049.4741,W,26.42,234.30,150910,,*2f
$GPGGA,121853.250,4452.7886,N,00049.4741,W,1,8,184,101.15,M,101.15,M,,*53
$GPVTG,0.000,T,0,M,26.42,N,48.90,K*57
$GPRMC,121853.500,A,4452.7880,N,00049.4763,W,26.03,236.00,150910,,*2f
$GPGGA,121853.500,4452.7880,N,00049.4763,W,1,8,184,101.30,M,101.30,M,,*57
$GPVTG,0.000,T,0,M,26.03,N,48.18,K*52
$GPRMC,121853.750,A,4452.7867,N,00049.4786,W,26.48,237.30,150910,,*27
$GPGGA,121853.750,4452.7867,N,00049.4786,W,1,8,184,101.47,M,101.47,M,,*52
$GPVTG,0.000,T,0,M,26.48,N,49.01,K*54
$GPRMC,121854.000,A,4452.7865,N,00049.4809,W,26.30,238.90,150910,,*22
$GPGGA,121854.000,4452.7865,N,00049.4809,W,1,8,184,101.66,M,101.66,M,,*5d
$GPVTG,0.000,T,0,M,26.30,N,48.68,K*55
$GPRMC,121854.250,A,4452.7855,N,00049.4832,W,25.85,240.00,150910,,*25
$GPGGA,121854.250,4452.7855,N,00049.4832,W,1,8,184,101.86,M,101.86,M,,*51
$GPVTG,0.000,T,0,M,25.85,N,47.86,K*57
$GPRMC,121854.500,A,4452.7844,N,00049.4855,W,25.97,241.30,150910,,*27
$GPGGA,121854.500,4452.7844,N,00049.4855,W,1,8,184,101.99,M,101.99,M,,*52
$GPVTG,0.000,T,0,M,25.97,N,48.07,K*52
$GPRMC,121854.750,A,4452.7840,N,00049.4880,W,25.70,242.60,150910,,*23
$GPGGA,121854.750,4452.7840,N,00049.4880,W,1,8,184,102.23,M,102.23,M,,*59
$GPVTG,0.000,T,0,M,25.70,N,47.57,K*51
$GPRMC,121855.000,A,4452.7834,N,00049.4902,W,25.46,243.70,150910,,*2d
$GPGGA,121855.000,4452.7834,N,00049.4902,W,1,8,184,102.50,M,102.50,M,,*52
$GPVTG,0.000,T,0,M,25.46,N,47.14,K*53
$GPRMC,121855.250,A,4452.7828,N,00049.4925,W,25.31,244.60,150910,,*24
$GPGGA,121855.250,4452.7828,N,00049.4925,W,1,8,184,102.96,M,102.96,M,,*5d
$GPVTG,0.000,T,0,M,25.31,N,46.85,K*5a
$GPRMC,121855.500,A,4452.7818,N,00049.4950,W,25.48,246.20,150910,,*2f
$GPGGA,121855.500,4452.7818,N,00049.4950,W,1,8,184,103.49,M,103.49,M,,*5e
$GPVTG,0.000,T,0,M,25.48,N,47.17,K*5e
$GPRMC,121855.750,A,4452.7816,N,00049.4973,W,24.73,248.00,150910,,*22
$GPGGA,121855.750,4452.7816,N,00049.4973,W,1,8,184,103.80,M,103.80,M,,*56
$GPVTG,0.000,T,0,M,24.73,N,45.77,K*53
$GPRMC,121856.000,A,4452.7810,N,00049.4996,W,23.48,249.50,150910,,*25
$GPGGA,121856.000,4452.7810,N,00049.4996,W,1,8,184,104.22,M,104.22,M,,*5a
$GPVTG,0.000,T,0,M,23.48,N,43.47,K*59
$GPRMC,121856.250,A,4452.7806,N,00049.5019,W,23.77,251.00,150910,,*2a
$GPGGA,121856.250,4452.7806,N,00049.5019,W,1,8,184,104.55,M,104.55,M,,*55
$GPVTG,0.000,T,0,M,23.77,N,44.01,K*50
$GPRMC,121856.500,A,4452.7800,N,00049.5042,W,23.23,252.70,150910,,*25
$GPGGA,121856.500,4452.7800,N,00049.5042,W,1,8,184,104.87,M,104.87,M,,*5f
$GPVTG,0.000,T,0,M,23.23,N,43.00,K*57
$GPRMC,121856.750,A,4452.7799,N,00049.5066,W,23.21,254.90,150910,,*21
$GPGGA,121856.750,4452.7799,N,00049.5066,W,1,8,184,105.14,M,105.14,M,,*51
$GPVTG,0.000,T,0,M,23.21,N,42.96,K*5b
$GPRMC,121857.000,A,4452.7798,N,00049.5088,W,22.74,257.70,150910,,*2f
$GPGGA,121857.000,4452.7798,N,00049.5088,W,1,8,184,105.53,M,105.53,M,,*53
$GPVTG,0.000,T,0,M,22.74,N,42.10,K*54
$GPRMC,121857.250,A,4452.7797,N,00049.5110,W,21.97,260.10,150910,,*2b
$GPGGA,121857.250,4452.7797,N,00049.5110,W,1,8,184,106.01,M,106.01,M,,*5b
$GPVTG,0.000,T,0,M,21.97,N,40.66,K*59
$GPRMC,121857.500,A,4452.7800,N,00049.5132,W,22.08,263.10,150910,,*2e
$GPGGA,121857.500,4452.7800,N,00049.5132,W,1,8,184,106.39,M,106.39,M,,*58
$GPVTG,0.000,T,0,M,22.08,N,40.88,K*5c
$GPRMC,121857.750,A,4452.7801,N,00049.5154,W,21.65,266.50,150910,,*21
$GPGGA,121857.750,4452.7801,N,00049.5154,W,1,8,184,106.95,M,106.95,M,,*5e
$GPVTG,0.000,T,0,M,21.65,N,40.08,K*5c
$GPRMC,121858.000,A,4452.7809,N,00049.5175,W,21.19,269.70,150910,,*21
$GPGGA,121858.000,4452.7809,N,00049.5175,W,1,8,184,107.54,M,107.54,M,,*58
$GPVTG,0.000,T,0,M,21.19,N,39.22,K*51
$GPRMC,121858.250,A,4452.7808,N,00049.5195,W,21.23,272.90,150910,,*24
$GPGGA,121858.250,4452.7808,N,00049.5195,W,1,8,184,108.01,M,108.01,M,,*50
$GPVTG,0.000,T,0,M,21.23,N,39.29,K*53
$GPRMC,121858.500,A,4452.7815,N,00049.5215,W,20.95,276.40,150910,,*24
$GPGGA,121858.500,4452.7815,N,00049.5215,W,1,8,184,108.55,M,108.55,M,,*55
$GPVTG,0.000,T,0,M,20.95,N,38.79,K*5b
$GPRMC,121858.750,A,4452.7821,N,00049.5234,W,21.07,280.40,150910,,*24
$GPGGA,121858.750,4452.7821,N,00049.5234,W,1,8,184,109.21,M,109.21,M,,*56
$GPVTG,0.000,T,0,M,21.07,N,39.01,K*5f
$GPRMC,121859.000,A,4452.7827,N,00049.5253,W,20.53,283.50,150910,,*22
$GPGGA,121859.000,4452.7827,N,00049.5253,W,1,8,184,109.79,M,109.79,M,,*52
$GPVTG,0.000,T,0,M,20.53,N,38.00,K*5f
$GPRMC,121859.250,A,4452.7830,N,00049.5271,W,21.13,285.80,150910,,*2d
$GPGGA,121859.250,4452.7830,N,00049.5271,W,1,8,184,110.24,M,110.24,M,,*53
$GPVTG,0.000,T,0,M,21.13,N,39.11,K*5b
$GPRMC,121859.500,A,4452.7840,N,00049.5291,W,21.34,288.00,150910,,*26
$GPGGA,121859.500,4452.7840,N,00049.5291,W,1,8,184,110.41,M,110.41,M,,*58
$GPVTG,0.000,T,0,M,21.34,N,39.51,K*5a
$GPRMC,121859.750,A,4452.7844,N,00049.5310,W,20.41,289.70,150910,,*28
$GPGGA,121859.750,4452.7844,N,00049.5310,W,1,8,184,110.52,M,110.52,M,,*53
$GPVTG,0.000,T,0,M,20.41,N,37.78,K*5c
$GPRMC,121860.000,A,4452.7852,N,00049.5329,W,20.22,291.80,150910,,*2e
$GPGGA,121860.000,4452.7852,N,00049.5329,W,1,8,184,110.55,M,110.55,M,,*56
$GPVTG,0.000,T,0,M,20.22,N,37.42,K*50
$GPRMC,121900.250,A,4452.7857,N,00049.5347,W,20.39,293.30,150910,,*20
$GPGGA,121900.250,4452.7857,N,00049.5347,W,1,8,184,110.71,M,110.71,M,,*5b
$GPVTG,0.000,T,0,M,20.39,N,37.75,K*5e
$GPRMC,121900.500,A,4452.7865,N,00049.5365,W,20.37,295.00,150910,,*28
$GPGGA,121900.500,4452.7865,N,00049.5365,W,1,8,184,110.57,M,110.57,M,,*58
$GPVTG,0.000,T,0,M,20.37,N,37.71,K*54
$GPRMC,121900.750,A,4452.7871,N,00049.5383,W,20.06,296.60,150910,,*25
$GPGGA,121900.750,4452.7871,N,00049.5383,W,1,8,184,110.29,M,110.29,M,,*52
$GPVTG,0.000,T,0,M,20.06,N,37.13,K*52
$GPRMC,121901.000,A,4452.7879,N,00049.5400,W,20.39,298.10,150910,,*27
$GPGGA,121901.000,4452.7879,N,00049.5400,W,1,8,184,109.89,M,109.89,M,,*55
$GPVTG,0.000,T,0,M,20.39,N,37.75,K*5e
$GPRMC,121901.250,A,4452.7889,N,00049.5419,W,21.03,299.40,150910,,*2b
$GPGGA,121901.250,4452.7889,N,00049.5419,W,1,8,184,109.49,M,109.49,M,,*55
$GPVTG,0.000,T,0,M,21.03,N,38.93,K*51
$GPRMC,121901.500,A,4452.7894,N,00049.5437,W,21.13,300.40,150910,,*29
$GPGGA,121901.500,4452.7894,N,00049.5437,W,1,8,184,108.80,M,108.80,M,,*57
$GPVTG,0.000,T,0,M,21.13,N,39.11,K*5b
$GPRMC,121901.750,A,4452.7905,N,00049.5456,W,22.08,301.60,150910,,*2a
$GPGGA,121901.750,4452.7905,N,00049.5456,W,1,8,184,108.16,M,108.16,M,,*5e
$GPVTG,0.000,T,0,M,22.08,N,40.88,K*5c
$GPRMC,121902.000,A,4452.7915,N,00049.5474,W,22.33,302.60,150910,,*21
$GPGGA,121902.000,4452.7915,N,00049.5474,W,1,8,184,107.49,M,107.49,M,,*5e
$GPVTG,0.000,T,0,M,22.33,N,41.34,K*52
$GPRMC,121902.250,A,4452.7925,N,00049.5493,W,22.88,303.40,150910,,*2f
$GPGGA,121902.250,4452.7925,N,00049.5493,W,1,8,184,106.91,M,106.91,M,,*53
$GPVTG,0.000,T,0,M,22.88,N,42.35,K*50
$GPRMC,121902.500,A,4452.7933,N,00049.5512,W,23.21,304.30,150910,,*20
$GPGGA,121902.500,4452.7933,N,00049.5512,W,1,8,184,106.34,M,106.34,M,,*5e
$GPVTG,0.000,T,0,M,23.21,N,42.96,K*5b
$GPRMC,121902.750,A,4452.7942,N,00049.5531,W,23.44,305.80,150910,,*29
$GPGGA,121902.750,4452.7942,N,00049.5531,W,1,8,184,105.90,M,105.90,M,,*5e
$GPVTG,0.000,T,0,M,23.44,N,43.40,K*52
$GPRMC,121903.000,A,4452.7950,N,00049.5548,W,23.21,307.50,150910,,*2b
$GPGGA,121903.000,4452.7950,N,00049.5548,W,1,8,184,105.82,M,105.82,M,,*50
$GPVTG,0.000,T,0,M,23.21,N,42.96,K*5b
$GPRMC,121903.250,A,4452.7965,N,00049.5565,W,23.60,309.70,150910,,*2c
$GPGGA,121903.250,4452.7965,N,00049.5565,W,1,8,184,105.81,M,105.81,M,,*5e
$GPVTG,0.000,T,0,M,23.60,N,43.68,K*5e
$GPRMC,121903.500,A,4452.7974,N,00049.5580,W,23.46,312.30,150910,,*2f
$GPGGA,121903.500,4452.7974,N,00049.5580,W,1,8,184,105.68,M,105.68,M,,*57
$GPVTG,0.000,T,0,M,23.46,N,43.43,K*53
$GPRMC,121903.750,A,4452.7987,N,00049.5595,W,24.18,314.60,150910,,*2f
$GPGGA,121903.750,4452.7987,N,00049.5595,W,1,8,184,105.56,M,105.56,M,,*58
$GPVTG,0.000,T,0,M,24.18,N,44.76,K*5e
$GPRMC,121904.000,A,4452.8000,N,00049.5609,W,23.91,317.40,150910,,*22
$GPGGA,121904.000,4452.8000,N,00049.5609,W,1,8,184,105.46,M,105.46,M,,*52
$GPVTG,0.000,T,0,M,23.91,N,44.26,K*5d
$GPRMC,121904.250,A,4452.8015,N,00049.5621,W,23.99,320.50,150910,,*26
$GPGGA,121904.250,4452.8015,N,00049.5621,W,1,8,184,105.45,M,105.45,M,,*5b
$GPVTG,0.000,T,0,M,23.99,N,44.40,K*55
$GPRMC,121904.500,A,4452.8029,N,00049.5632,W,24.05,323.60,150910,,*2b
$GPGGA,121904.500,4452.8029,N,00049.5632,W,1,8,184,105.42,M,105.42,M,,*54
$GPVTG,0.000,T,0,M,24.05,N,44.51,K*57
$GPRMC,121904.750,A,4452.8042,N,00049.5642,W,24.32,326.50,150910,,*24
$GPGGA,121904.750,4452.8042,N,00049.5642,W,1,8,184,105.55,M,105.55,M,,*59
$GPVTG,0.000,T,0,M,24.32,N,45.01,K*57
$GPRMC,121905.000,A,4452.8058,N,00049.5650,W,24.16,329.90,150910,,*2a
$GPGGA,121905.000,4452.8058,N,00049.5650,W,1,8,184,105.84,M,105.84,M,,*52
$GPVTG,0.000,T,0,M,24.16,N,44.73,K*55
$GPRMC,121905.250,A,4452.8073,N,00049.5658,W,24.49,332.80,150910,,*2d
$GPGGA,121905.250,4452.8073,N,00049.5658,W,1,8,184,106.18,M,106.18,M,,*54
$GPVTG,0.000,T,0,M,24.49,N,45.34,K*5d
$GPRMC,121905.500,A,4452.8086,N,00049.5665,W,25.19,336.20,150910,,*21
$GPGGA,121905.500,4452.8086,N,00049.5665,W,1,8,184,106.47,M,106.47,M,,*52
$GPVTG,0.000,T,0,M,25.19,N,46.63,K*58
$GPRMC,121905.750,A,4452.8105,N,00049.5672,W,25.52,339.30,150910,,*2b
$GPGGA,121905.750,4452.8105,N,00049.5672,W,1,8,184,106.84,M,106.84,M,,*59
$GPVTG,0.000,T,0,M,25.52,N,47.25,K*54
$GPRMC,121906.000,A,4452.8121,N,00049.5677,W,26.42,342.00,150910,,*24
$GPGGA,121906.000,4452.8121,N,00049.5677,W,1,8,184,107.18,M,107.18,M,,*5b
$GPVTG,0.000,T,0,M,26.42,N,48.90,K*57
$GPRMC,121906.250,A,4452.8138,N,00049.5683,W,27.23,344.30,150910,,*23
$GPGGA,121906.250,4452.8138,N,00049.5683,W,1,8,184,107.43,M,107.43,M,,*5f
$GPVTG,0.000,T,0,M,27.23,N,50.41,K*54
$GPRMC,121906.500,A,4452.8158,N,00049.5686,W,27.76,348.00,150910,,*2d
$GPGGA,121906.500,4452.8158,N,00049.5686,W,1,8,184,107.76,M,107.76,M,,*5e
$GPVTG,0.000,T,0,M,27.76,N,51.38,K*5b
$GPRMC,121906.750,A,4452.8176,N,00049.5688,W,27.93,350.80,150910,,*22
$GPGGA,121906.750,4452.8176,N,00049.5688,W,1,8,184,108.12,M,108.12,M,,*5b
$GPVTG,0.000,T,0,M,27.93,N,51.71,K*5d
$GPRMC,121907.000,A,4452.8195,N,00049.5689,W,28.48,354.40,150910,,*2c
$GPGGA,121907.000,4452.8195,N,00049.5689,W,1,8,184,108.26,M,108.26,M,,*54
$GPVTG,0.000,T,0,M,28.48,N,52.71,K*57
$GPRMC,121907.250,A,4452.8214,N,00049.5689,W,28.44,356.80,150910,,*23
$GPGGA,121907.250,4452.8214,N,00049.5689,W,1,8,184,108.37,M,108.37,M,,*59
$GPVTG,0.000,T,0,M,28.44,N,52.64,K*5f
$GPRMC,121907.500,A,4452.8231,N,00049.5686,W,28.73,359.90,150910,,*23
$GPGGA,121907.500,4452.8231,N,00049.5686,W,1,8,184,108.44,M,108.44,M,,*53
$GPVTG,0.000,T,0,M,28.73,N,53.18,K*51
$GPRMC,121907.750,A,4452.8254,N,00049.5681,W,28.67,2.40,150910,,*25
$GPGGA,121907.750,4452.8254,N,00049.5681,W,1,8,184,108.31,M,108.31,M,,*50
$GPVTG,0.000,T,0,M,28.67,N,53.07,K*5a
$GPRMC,121908.000,A,4452.8269,N,00049.5676,W,28.85,4.70,150910,,*27
$GPGGA,121908.000,4452.8269,N,00049.5676,W,1,8,184,108.24,M,108.24,M,,*5b
$GPVTG,0.000,T,0,M,28.85,N,53.40,K*55
$GPRMC,121908.250,A,4452.8289,N,00049.5670,W,29.35,6.40,150910,,*23
$GPGGA,121908.250,4452.8289,N,00049.5670,W,1,8,184,108.11,M,108.11,M,,*54
$GPVTG,0.000,T,0,M,29.35,N,54.33,K*5c
$GPRMC,121908.500,A,4452.8308,N,00049.5663,W,29.60,9.50,150910,,*25
$GPGGA,121908.500,4452.8308,N,00049.5663,W,1,8,184,107.93,M,107.93,M,,*5c
$GPVTG,0.000,T,0,M,29.60,N,54.80,K*54
$GPRMC,121908.750,A,4452.8325,N,00049.5655,W,30.03,11.60,150910,,*1f
$GPGGA,121908.750,4452.8325,N,00049.5655,W,1,8,184,107.80,M,107.80,M,,*51
$GPVTG,0.000,T,0,M,30.03,N,55.59,K*5c
$GPRMC,121909.000,A,4452.8345,N,00049.5644,W,30.54,14.80,150910,,*13
$GPGGA,121909.000,4452.8345,N,00049.5644,W,1,8,184,107.70,M,107.70,M,,*54
$GPVTG,0.000,T,0,M,30.54,N,56.53,K*57
$GPRMC,121909.250,A,4452.8364,N,00049.5634,W,30.42,17.00,150910,,*1c
$GPGGA,121909.250,4452.8364,N,00049.5634,W,1,8,184,107.62,M,107.62,M,,*57
$GPVTG,0.000,T,0,M,30.42,N,56.31,K*54
$GPRMC,121909.500,A,4452.8380,N,00049.5623,W,30.87,19.40,150910,,*11
$GPGGA,121909.500,4452.8380,N,00049.5623,W,1,8,184,107.58,M,107.58,M,,*59
$GPVTG,0.000,T,0,M,30.87,N,57.14,K*5b
$GPRMC,121909.750,A,4452.8401,N,00049.5609,W,31.51,22.40,150910,,*12
$GPGGA,121909.750,4452.8401,N,00049.5609,W,1,8,184,107.64,M,107.64,M,,*58
$GPVTG,0.000,T,0,M,31.51,N,58.33,K*5b
$GPRMC,121910.000,A,4452.8419,N,00049.5594,W,32.09,25.40,150910,,*1f
$GPGGA,121910.000,4452.8419,N,00049.5594,W,1,8,184,107.80,M,107.80,M,,*5c
$GPVTG,0.000,T,0,M,32.09,N,59.41,K*51
$GPRMC,121910.250,A,4452.8439,N,00049.5577,W,32.42,28.10,150910,,*10
$GPGGA,121910.250,4452.8439,N,00049.5577,W,1,8,184,108.11,M,108.11,M,,*54
$GPVTG,0.000,T,0,M,32.42,N,60.02,K*53
$GPRMC,121910.500,A,4452.8455,N,00049.5558,W,33.20,31.10,150910,,*18
$GPGGA,121910.500,4452.8455,N,00049.5558,W,1,8,184,108.36,M,108.36,M,,*51
$GPVTG,0.000,T,0,M,33.20,N,61.46,K*57
$GPRMC,121910.750,A,4452.8475,N,00049.5537,W,33.32,34.40,150910,,*17
$GPGGA,121910.750,4452.8475,N,00049.5537,W,1,8,184,108.66,M,108.66,M,,*5d
$GPVTG,0.000,T,0,M,33.32,N,61.67,K*57
$GPRMC,121911.000,A,4452.8494,N,00049.5514,W,34.31,37.70,150910,,*1e
$GPGGA,121911.000,4452.8494,N,00049.5514,W,1,8,184,108.91,M,108.91,M,,*50
$GPVTG,0.000,T,0,M,34.31,N,63.51,K*54
$GPRMC,121911.250,A,4452.8511,N,00049.5489,W,34.48,40.70,150910,,*1e
$GPGGA,121911.250,4452.8511,N,00049.5489,W,1,8,184,109.01,M,109.01,M,,*5e
$GPVTG,0.000,T,0,M,34.48,N,63.83,K*55
$GPRMC,121911.500,A,4452.8529,N,00049.5463,W,34.46,43.90,150910,,*10
$GPGGA,121911.500,4452.8529,N,00049.5463,W,1,8,184,109.23,M,109.23,M,,*53
$GPVTG,0.000,T,0,M,34.46,N,63.80,K*58
$GPRMC,121911.750,A,4452.8545,N,00049.5436,W,34.48,46.80,150910,,*17
$GPGGA,121911.750,4452.8545,N,00049.5436,W,1,8,184,109.39,M,109.39,M,,*5e
$GPVTG,0.000,T,0,M,34.48,N,63.83,K*55
$GPRMC,121912.000,A,4452.8562,N,00049.5410,W,34.81,48.70,150910,,*13
$GPGGA,121912.000,4452.8562,N,00049.5410,W,1,8,184,109.55,M,109.55,M,,*5e
$GPVTG,0.000,T,0,M,34.81,N,64.45,K*5d
$GPRMC,121912.250,A,4452.8576,N,00049.5383,W,34.44,50.90,150910,,*12
$GPGGA,121912.250,4452.8576,N,00049.5383,W,1,8,184,109.61,M,109.61,M,,*51
$GPVTG,0.000,T,0,M,34.44,N,63.76,K*53
$GPRMC,121912.500,A,4452.8591,N,00049.5354,W,34.93,54.30,150910,,*17
$GPGGA,121912.500,4452.8591,N,00049.5354,W,1,8,184,109.71,M,109.71,M,,*50
$GPVTG,0.000,T,0,M,34.93,N,64.66,K*5f
$GPRMC,121912.750,A,4452.8606,N,00049.5326,W,34.23,57.20,150910,,*11
$GPGGA,121912.750,4452.8606,N,00049.5326,W,1,8,184,109.66,M,109.66,M,,*5f
$GPVTG,0.000,T,0,M,34.23,N,63.37,K*57
$GPRMC,121913.000,A,4452.8617,N,00049.5297,W,34.44,59.90,150910,,*1d
$GPGGA,121913.000,4452.8617,N,00049.5297,W,1,8,184,109.54,M,109.54,M,,*57
$GPVTG,0.000,T,0,M,34.44,N,63.76,K*53
$GPRMC,121913.250,A,4452.8627,N,00049.5267,W,34.68,62.70,150910,,*1e
$GPGGA,121913.250,4452.8627,N,00049.5267,W,1,8,184,109.33,M,109.33,M,,*5c
$GPVTG,0.000,T,0,M,34.68,N,64.19,K*53
$GPRMC,121913.500,A,4452.8637,N,00049.5236,W,34.70,65.40,150910,,*14
$GPGGA,121913.500,4452.8637,N,00049.5236,W,1,8,184,109.00,M,109.00,M,,*5b
$GPVTG,0.000,T,0,M,34.70,N,64.23,K*53
$GPRMC,121913.750,A,4452.8645,N,00049.5204,W,34.66,68.70,150910,,*1e
$GPGGA,121913.750,4452.8645,N,00049.5204,W,1,8,184,108.67,M,108.67,M,,*58
$GPVTG,0.000,T,0,M,34.66,N,64.16,K*52
$GPRMC,121914.250,A,4452.8657,N,00049.5137,W,34.89,75.70,150910,,*11
$GPGGA,121914.250,4452.8657,N,00049.5137,W,1,8,184,107.81,M,107.81,M,,*5a
$GPVTG,0.000,T,0,M,34.89,N,64.59,K*58
$GPRMC,121914.500,A,4452.8662,N,00049.5103,W,35.69,79.60,150910,,*10
$GPGGA,121914.500,4452.8662,N,00049.5103,W,1,8,184,107.36,M,107.36,M,,*59
$GPVTG,0.000,T,0,M,35.69,N,66.06,K*5f
$GPRMC,121914.750,A,4452.8661,N,00049.5035,W,35.51,83.90,150910,,*11
$GPGGA,121914.750,4452.8661,N,00049.5035,W,1,8,184,106.41,M,106.41,M,,*59
$GPVTG,0.000,T,0,M,35.51,N,65.74,K*52
$GPRMC,121915.500,A,4452.8656,N,00049.4965,W,36.12,95.20,150910,,*16
$GPGGA,121915.500,4452.8656,N,00049.4965,W,1,8,184,105.34,M,105.34,M,,*56
$GPVTG,0.000,T,0,M,36.12,N,66.86,K*58
$GPRMC,121916.000,A,4452.8645,N,00049.4897,W,36.29,103.10,150910,,*2b
$GPGGA,121916.000,4452.8645,N,00049.4897,W,1,8,184,104.41,M,104.41,M,,*5e
$GPVTG,0.000,T,0,M,36.29,N,67.18,K*56
$GPRMC,121916.250,A,4452.8635,N,00049.4865,W,36.70,107.70,150910,,*28
$GPGGA,121916.250,4452.8635,N,00049.4865,W,1,8,184,103.98,M,103.98,M,,*53
$GPVTG,0.000,T,0,M,36.70,N,67.94,K*5e
$GPRMC,121916.500,A,4452.8624,N,00049.4834,W,36.99,111.90,150910,,*20
$GPGGA,121916.500,4452.8624,N,00049.4834,W,1,8,184,103.60,M,103.60,M,,*55
$GPVTG,0.000,T,0,M,36.99,N,68.48,K*57
$GPRMC,121916.750,A,4452.8610,N,00049.4806,W,36.84,116.50,150910,,*26
$GPGGA,121916.750,4452.8610,N,00049.4806,W,1,8,184,103.28,M,103.28,M,,*54
$GPVTG,0.000,T,0,M,36.84,N,68.19,K*5f
$GPRMC,121917.000,A,4452.8595,N,00049.4776,W,36.04,121.20,150910,,*28
$GPGGA,121917.000,4452.8595,N,00049.4776,W,1,8,184,103.13,M,103.13,M,,*51
$GPVTG,0.000,T,0,M,36.04,N,66.71,K*57
$GPRMC,121917.250,A,4452.8577,N,00049.4749,W,36.72,125.40,150910,,*2c
$GPGGA,121917.250,4452.8577,N,00049.4749,W,1,8,184,103.04,M,103.04,M,,*56
$GPVTG,0.000,T,0,M,36.72,N,67.97,K*5f
$GPRMC,121917.500,A,4452.8561,N,00049.4724,W,36.97,129.10,150910,,*20
$GPGGA,121917.500,4452.8561,N,00049.4724,W,1,8,184,103.19,M,103.19,M,,*58
$GPVTG,0.000,T,0,M,36.97,N,68.44,K*55
$GPRMC,121917.750,A,4452.8542,N,00049.4700,W,36.45,132.60,150910,,*22
$GPGGA,121917.750,4452.8542,N,00049.4700,W,1,8,184,103.40,M,103.40,M,,*58
$GPVTG,0.000,T,0,M,36.45,N,67.47,K*56
$GPRMC,121918.000,A,4452.8522,N,00049.4678,W,35.92,135.30,150910,,*2c
$GPGGA,121918.000,4452.8522,N,00049.4678,W,1,8,184,103.62,M,103.62,M,,*5d
$GPVTG,0.000,T,0,M,35.92,N,66.50,K*58
$GPRMC,121918.250,A,4452.8504,N,00049.4656,W,36.29,137.30,150910,,*22
$GPGGA,121918.250,4452.8504,N,00049.4656,W,1,8,184,103.80,M,103.80,M,,*52
$GPVTG,0.000,T,0,M,36.29,N,67.18,K*56
$GPRMC,121918.500,A,4452.8486,N,00049.4633,W,35.90,139.90,150910,,*2d
$GPGGA,121918.500,4452.8486,N,00049.4633,W,1,8,184,104.07,M,104.07,M,,*58
$GPVTG,0.000,T,0,M,35.90,N,66.46,K*5d
$GPRMC,121918.750,A,4452.8462,N,00049.4612,W,35.86,141.90,150910,,*2b
$GPGGA,121918.750,4452.8462,N,00049.4612,W,1,8,184,104.31,M,104.31,M,,*56
$GPVTG,0.000,T,0,M,35.86,N,66.39,K*52
$GPRMC,121919.000,A,4452.8444,N,00049.4593,W,35.88,144.10,150910,,*25
$GPGGA,121919.000,4452.8444,N,00049.4593,W,1,8,184,104.62,M,104.62,M,,*5b
$GPVTG,0.000,T,0,M,35.88,N,66.42,K*50
$GPRMC,121919.250,A,4452.8420,N,00049.4573,W,36.72,145.80,150910,,*20
$GPGGA,121919.250,4452.8420,N,00049.4573,W,1,8,184,104.95,M,104.95,M,,*50
$GPVTG,0.000,T,0,M,36.72,N,67.97,K*5f
$GPRMC,121919.500,A,4452.8400,N,00049.4554,W,36.43,147.70,150910,,*2a
$GPGGA,121919.500,4452.8400,N,00049.4554,W,1,8,184,105.20,M,105.20,M,,*55
$GPVTG,0.000,T,0,M,36.43,N,67.43,K*54
$GPRMC,121919.750,A,4452.8378,N,00049.4536,W,36.37,149.70,150910,,*2c
$GPGGA,121919.750,4452.8378,N,00049.4536,W,1,8,184,105.52,M,105.52,M,,*5e
$GPVTG,0.000,T,0,M,36.37,N,67.32,K*51
$GPRMC,121920.000,A,4452.8355,N,00049.4520,W,36.19,151.30,150910,,*2d
$GPGGA,121920.000,4452.8355,N,00049.4520,W,1,8,184,105.81,M,105.81,M,,*5e
$GPVTG,0.000,T,0,M,36.19,N,67.00,K*5c
$GPRMC,121920.250,A,4452.8328,N,00049.4503,W,35.94,152.90,150910,,*2e
$GPGGA,121920.250,4452.8328,N,00049.4503,W,1,8,184,106.07,M,106.07,M,,*52
$GPVTG,0.000,T,0,M,35.94,N,66.53,K*5d
$GPRMC,121920.500,A,4452.8307,N,00049.4489,W,35.22,154.90,150910,,*29
$GPGGA,121920.500,4452.8307,N,00049.4489,W,1,8,184,106.29,M,106.29,M,,*5e
$GPVTG,0.000,T,0,M,35.22,N,65.20,K*57
$GPRMC,121920.750,A,4452.8285,N,00049.4477,W,35.14,157.30,150910,,*28
$GPGGA,121920.750,4452.8285,N,00049.4477,W,1,8,184,106.49,M,106.49,M,,*53
$GPVTG,0.000,T,0,M,35.14,N,65.06,K*56
$GPRMC,121921.000,A,4452.8262,N,00049.4466,W,34.62,160.10,150910,,*24
$GPGGA,121921.000,4452.8262,N,00049.4466,W,1,8,184,106.77,M,106.77,M,,*59
$GPVTG,0.000,T,0,M,34.62,N,64.09,K*58
$GPRMC,121921.250,A,4452.8238,N,00049.4457,W,33.78,162.80,150910,,*29
$GPGGA,121921.250,4452.8238,N,00049.4457,W,1,8,184,107.09,M,107.09,M,,*53
$GPVTG,0.000,T,0,M,33.78,N,62.54,K*5a
$GPRMC,121921.500,A,4452.8214,N,00049.4451,W,33.96,165.70,150910,,*2b
$GPGGA,121921.500,4452.8214,N,00049.4451,W,1,8,184,107.27,M,107.27,M,,*59
$GPVTG,0.000,T,0,M,33.96,N,62.86,K*55
$GPRMC,121921.750,A,4452.8193,N,00049.4446,W,32.87,169.00,150910,,*2c
$GPGGA,121921.750,4452.8193,N,00049.4446,W,1,8,184,107.37,M,107.37,M,,*54
$GPVTG,0.000,T,0,M,32.87,N,60.85,K*55
$GPRMC,121922.000,A,4452.8171,N,00049.4443,W,32.17,171.70,150910,,*23
$GPGGA,121922.000,4452.8171,N,00049.4443,W,1,8,184,107.61,M,107.61,M,,*5c
$GPVTG,0.000,T,0,M,32.17,N,59.55,K*5b
$GPRMC,121922.250,A,4452.8150,N,00049.4443,W,30.93,175.20,150910,,*28
$GPGGA,121922.250,4452.8150,N,00049.4443,W,1,8,184,107.86,M,107.86,M,,*58
$GPVTG,0.000,T,0,M,30.93,N,57.25,K*5c
$GPRMC,121922.500,A,4452.8127,N,00049.4445,W,29.78,179.20,150910,,*2d
$GPGGA,121922.500,4452.8127,N,00049.4445,W,1,8,184,108.11,M,108.11,M,,*5c
$GPVTG,0.000,T,0,M,29.78,N,55.13,K*56
$GPRMC,121922.750,A,4452.8106,N,00049.4451,W,29.22,183.40,150910,,*20
$GPGGA,121922.750,4452.8106,N,00049.4451,W,1,8,184,108.37,M,108.37,M,,*5d
$GPVTG,0.000,T,0,M,29.22,N,54.08,K*52
$GPRMC,121923.000,A,4452.8089,N,00049.4458,W,28.36,188.00,150910,,*27
$GPGGA,121923.000,4452.8089,N,00049.4458,W,1,8,184,108.66,M,108.66,M,,*51
$GPVTG,0.000,T,0,M,28.36,N,52.50,K*5d
$GPRMC,121923.250,A,4452.8073,N,00049.4467,W,27.89,192.00,150910,,*29
$GPGGA,121923.250,4452.8073,N,00049.4467,W,1,8,184,108.88,M,108.88,M,,*5f
$GPVTG,0.000,T,0,M,27.89,N,51.64,K*52
$GPRMC,121923.500,A,4452.8054,N,00049.4478,W,27.29,194.80,150910,,*24
$GPGGA,121923.500,4452.8054,N,00049.4478,W,1,8,184,108.97,M,108.97,M,,*56
$GPVTG,0.000,T,0,M,27.29,N,50.52,K*5c
$GPRMC,121923.750,A,4452.8040,N,00049.4488,W,27.25,198.30,150910,,*22
$GPGGA,121923.750,4452.8040,N,00049.4488,W,1,8,184,109.04,M,109.04,M,,*5b
$GPVTG,0.000,T,0,M,27.25,N,50.45,K*56
$GPRMC,121924.000,A,4452.8025,N,00049.4498,W,27.10,201.10,150910,,*22
$GPGGA,121924.000,4452.8025,N,00049.4498,W,1,8,184,109.19,M,109.19,M,,*5c
$GPVTG,0.000,T,0,M,27.10,N,50.16,K*56
$GPRMC,121924.250,A,4452.8010,N,00049.4508,W,26.81,203.30,150910,,*22
$GPGGA,121924.250,4452.8010,N,00049.4508,W,1,8,184,109.22,M,109.22,M,,*55
$GPVTG,0.000,T,0,M,26.81,N,49.62,K*54
$GPRMC,121924.500,A,4452.7994,N,00049.4521,W,26.98,205.70,150910,,*2b
$GPGGA,121924.500,4452.7994,N,00049.4521,W,1,8,184,108.95,M,108.95,M,,*56
$GPVTG,0.000,T,0,M,26.98,N,49.94,K*55
$GPRMC,121924.750,A,4452.7976,N,00049.4533,W,26.75,207.70,150910,,*22
$GPGGA,121924.750,4452.7976,N,00049.4533,W,1,8,184,108.76,M,108.76,M,,*5e
$GPVTG,0.000,T,0,M,26.75,N,49.51,K*5f
$GPRMC,121925.000,A,4452.7962,N,00049.4547,W,26.75,209.70,150910,,*29
$GPGGA,121925.000,4452.7962,N,00049.4547,W,1,8,184,108.72,M,108.72,M,,*5b
$GPVTG,0.000,T,0,M,26.75,N,49.51,K*5f
$GPRMC,121925.250,A,4452.7949,N,00049.4561,W,26.36,211.90,150910,,*23
$GPGGA,121925.250,4452.7949,N,00049.4561,W,1,8,184,108.59,M,108.59,M,,*51
$GPVTG,0.000,T,0,M,26.36,N,48.79,K*53
$GPRMC,121925.500,A,4452.7935,N,00049.4577,W,26.61,214.10,150910,,*22
$GPGGA,121925.500,4452.7935,N,00049.4577,W,1,8,184,108.51,M,108.51,M,,*5f
$GPVTG,0.000,T,0,M,26.61,N,49.26,K*5a
$GPRMC,121925.750,A,4452.7922,N,00049.4593,W,26.61,216.10,150910,,*2b
$GPGGA,121925.750,4452.7922,N,00049.4593,W,1,8,184,108.55,M,108.55,M,,*54
$GPVTG,0.000,T,0,M,26.61,N,49.26,K*5a
$GPRMC,121926.000,A,4452.7909,N,00049.4610,W,26.77,218.20,150910,,*21
$GPGGA,121926.000,4452.7909,N,00049.4610,W,1,8,184,108.58,M,108.58,M,,*54
$GPVTG,0.000,T,0,M,26.77,N,49.55,K*59
$GPRMC,121926.250,A,4452.7895,N,00049.4628,W,26.79,219.90,150910,,*2d
$GPGGA,121926.250,4452.7895,N,00049.4628,W,1,8,184,108.59,M,108.59,M,,*5c
$GPVTG,0.000,T,0,M,26.79,N,49.58,K*5a
$GPRMC,121926.500,A,4452.7886,N,00049.4646,W,27.04,221.30,150910,,*2f
$GPGGA,121926.500,4452.7886,N,00049.4646,W,1,8,184,108.49,M,108.49,M,,*54
$GPVTG,0.000,T,0,M,27.04,N,50.05,K*51
$GPRMC,121926.750,A,4452.7871,N,00049.4664,W,27.08,222.50,150910,,*29
$GPGGA,121926.750,4452.7871,N,00049.4664,W,1,8,184,108.43,M,108.43,M,,*5b
$GPVTG,0.000,T,0,M,27.08,N,50.12,K*5b
$GPRMC,121927.000,A,4452.7860,N,00049.4683,W,27.12,223.90,150910,,*25
$GPGGA,121927.000,4452.7860,N,00049.4683,W,1,8,184,108.34,M,108.34,M,,*51
$GPVTG,0.000,T,0,M,27.12,N,50.20,K*51
$GPRMC,121927.250,A,4452.7849,N,00049.4702,W,26.65,225.50,150910,,*2a
$GPGGA,121927.250,4452.7849,N,00049.4702,W,1,8,184,108.32,M,108.32,M,,*55
$GPVTG,0.000,T,0,M,26.65,N,49.33,K*5a
$GPRMC,121927.500,A,4452.7838,N,00049.4722,W,27.19,227.30,150910,,*22
$GPGGA,121927.500,4452.7838,N,00049.4722,W,1,8,184,108.25,M,108.25,M,,*53
$GPVTG,0.000,T,0,M,27.19,N,50.34,K*5f
$GPRMC,121927.750,A,4452.7829,N,00049.4742,W,26.81,228.60,150910,,*29
$GPGGA,121927.750,4452.7829,N,00049.4742,W,1,8,184,108.25,M,108.25,M,,*52
$GPVTG,0.000,T,0,M,26.81,N,49.62,K*54
$GPRMC,121928.000,A,4452.7818,N,00049.4763,W,26.92,230.10,150910,,*29
$GPGGA,121928.000,4452.7818,N,00049.4763,W,1,8,184,108.25,M,108.25,M,,*5e
$GPVTG,0.000,T,0,M,26.92,N,49.84,K*5e
$GPRMC,121928.250,A,4452.7805,N,00049.4785,W,26.53,231.80,150910,,*2f
$GPGGA,121928.250,4452.7805,N,00049.4785,W,1,8,184,108.31,M,108.31,M,,*5d
$GPVTG,0.000,T,0,M,26.53,N,49.12,K*5c
$GPRMC,121928.500,A,4452.7794,N,00049.4807,W,26.26,234.10,150910,,*21
$GPGGA,121928.500,4452.7794,N,00049.4807,W,1,8,184,108.35,M,108.35,M,,*5d
$GPVTG,0.000,T,0,M,26.26,N,48.61,K*5b
$GPRMC,121928.750,A,4452.7786,N,00049.4831,W,25.93,236.10,150910,,*2f
$GPGGA,121928.750,4452.7786,N,00049.4831,W,1,8,184,108.45,M,108.45,M,,*5c
$GPVTG,0.000,T,0,M,25.93,N,48.00,K*51
$GPRMC,121929.000,A,4452.7777,N,00049.4854,W,25.54,238.10,150910,,*24
$GPGGA,121929.000,4452.7777,N,00049.4854,W,1,8,184,108.62,M,108.62,M,,*52
$GPVTG,0.000,T,0,M,25.54,N,47.28,K*5f
$GPRMC,121929.250,A,4452.7767,N,00049.4878,W,25.78,239.90,150910,,*2b
$GPGGA,121929.250,4452.7767,N,00049.4878,W,1,8,184,108.75,M,108.75,M,,*5a
$GPVTG,0.000,T,0,M,25.78,N,47.71,K*5d
$GPRMC,121929.500,A,4452.7765,N,00049.4902,W,25.41,242.30,150910,,*2b
$GPGGA,121929.500,4452.7765,N,00049.4902,W,1,8,184,108.78,M,108.78,M,,*56
$GPVTG,0.000,T,0,M,25.41,N,47.03,K*52
$GPRMC,121929.750,A,4452.7757,N,00049.4925,W,24.78,244.70,150910,,*21
$GPGGA,121929.750,4452.7757,N,00049.4925,W,1,8,184,108.86,M,108.86,M,,*55
$GPVTG,0.000,T,0,M,24.78,N,45.88,K*58
$GPRMC,121930.000,A,4452.7754,N,00049.4949,W,24.78,246.70,150910,,*20
$GPGGA,121930.000,4452.7754,N,00049.4949,W,1,8,184,109.00,M,109.00,M,,*56
$GPVTG,0.000,T,0,M,24.78,N,45.88,K*58
$GPRMC,121930.250,A,4452.7750,N,00049.4973,W,24.30,249.60,150910,,*28
$GPGGA,121930.250,4452.7750,N,00049.4973,W,1,8,184,109.14,M,109.14,M,,*5c
$GPVTG,0.000,T,0,M,24.30,N,44.98,K*54
$GPRMC,121930.500,A,4452.7748,N,00049.4997,W,24.26,252.10,150910,,*23
$GPGGA,121930.500,4452.7748,N,00049.4997,W,1,8,184,109.17,M,109.17,M,,*5d
$GPVTG,0.000,T,0,M,24.26,N,44.91,K*5a
$GPRMC,121930.750,A,4452.7747,N,00049.5022,W,24.12,254.70,150910,,*2a
$GPGGA,121930.750,4452.7747,N,00049.5022,W,1,8,184,109.19,M,109.19,M,,*53
$GPVTG,0.000,T,0,M,24.12,N,44.65,K*56
$GPRMC,121931.000,A,4452.7746,N,00049.5046,W,23.93,256.70,150910,,*26
$GPGGA,121931.000,4452.7746,N,00049.5046,W,1,8,184,109.16,M,109.16,M,,*53
$GPVTG,0.000,T,0,M,23.93,N,44.29,K*50
$GPRMC,121931.250,A,4452.7745,N,00049.5070,W,23.83,259.00,150910,,*2e
$GPGGA,121931.250,4452.7745,N,00049.5070,W,1,8,184,109.04,M,109.04,M,,*52
$GPVTG,0.000,T,0,M,23.83,N,44.11,K*5a
$GPRMC,121931.500,A,4452.7744,N,00049.5094,W,23.87,261.40,150910,,*2c
$GPGGA,121931.500,4452.7744,N,00049.5094,W,1,8,184,108.97,M,108.97,M,,*5b
$GPVTG,0.000,T,0,M,23.87,N,44.19,K*56
$GPRMC,121931.750,A,4452.7749,N,00049.5117,W,23.23,264.00,150910,,*23
$GPGGA,121931.750,4452.7749,N,00049.5117,W,1,8,184,108.90,M,108.90,M,,*5b
$GPVTG,0.000,T,0,M,23.23,N,43.00,K*57
$GPRMC,121932.000,A,4452.7748,N,00049.5140,W,22.96,266.20,150910,,*2e
$GPGGA,121932.000,4452.7748,N,00049.5140,W,1,8,184,108.91,M,108.91,M,,*59
$GPVTG,0.000,T,0,M,22.96,N,42.50,K*5c
$GPRMC,121932.250,A,4452.7749,N,00049.5162,W,22.82,268.90,150910,,*28
$GPGGA,121932.250,4452.7749,N,00049.5162,W,1,8,184,109.01,M,109.01,M,,*5f
$GPVTG,0.000,T,0,M,22.82,N,42.24,K*5a
$GPRMC,121932.500,A,4452.7755,N,00049.5183,W,22.76,271.60,150910,,*24
$GPGGA,121932.500,4452.7755,N,00049.5183,W,1,8,184,109.15,M,109.15,M,,*5f
$GPVTG,0.000,T,0,M,22.76,N,42.14,K*52
$GPRMC,121932.750,A,4452.7756,N,00049.5204,W,22.67,274.10,150910,,*2e
$GPGGA,121932.750,4452.7756,N,00049.5204,W,1,8,184,109.27,M,109.27,M,,*57
$GPVTG,0.000,T,0,M,22.67,N,41.96,K*5b
$GPRMC,121933.000,A,4452.7764,N,00049.5226,W,23.02,277.00,150910,,*2c
$GPGGA,121933.000,4452.7764,N,00049.5226,W,1,8,184,109.31,M,109.31,M,,*55
$GPVTG,0.000,T,0,M,23.02,N,42.60,K*53
$GPRMC,121933.250,A,4452.7769,N,00049.5247,W,23.23,279.70,150910,,*2b
$GPGGA,121933.250,4452.7769,N,00049.5247,W,1,8,184,109.41,M,109.41,M,,*58
$GPVTG,0.000,T,0,M,23.23,N,43.00,K*57
$GPRMC,121933.500,A,4452.7773,N,00049.5271,W,22.98,282.80,150910,,*2d
$GPGGA,121933.500,4452.7773,N,00049.5271,W,1,8,184,109.45,M,109.45,M,,*54
$GPVTG,0.000,T,0,M,22.98,N,42.53,K*51
$GPRMC,121933.750,A,4452.7778,N,00049.5293,W,23.27,285.40,150910,,*23
$GPGGA,121933.750,4452.7778,N,00049.5293,W,1,8,184,109.64,M,109.64,M,,*54
$GPVTG,0.000,T,0,M,23.27,N,43.07,K*54
$GPRMC,121934.000,A,4452.7787,N,00049.5315,W,23.46,287.80,150910,,*20
$GPGGA,121934.000,4452.7787,N,00049.5315,W,1,8,184,109.81,M,109.81,M,,*5e
$GPVTG,0.000,T,0,M,23.46,N,43.43,K*53
$GPRMC,121934.250,A,4452.7795,N,00049.5337,W,23.46,290.50,150910,,*2f
$GPGGA,121934.250,4452.7795,N,00049.5337,W,1,8,184,110.05,M,110.05,M,,*5a
$GPVTG,0.000,T,0,M,23.46,N,43.43,K*53
$GPRMC,121934.500,A,4452.7803,N,00049.5358,W,23.56,292.90,150910,,*2b
$GPGGA,121934.500,4452.7803,N,00049.5358,W,1,8,184,110.41,M,110.41,M,,*51
$GPVTG,0.000,T,0,M,23.56,N,43.61,K*52
$GPRMC,121934.750,A,4452.7809,N,00049.5380,W,23.33,295.40,150910,,*2a
$GPGGA,121934.750,4452.7809,N,00049.5380,W,1,8,184,110.70,M,110.70,M,,*59
$GPVTG,0.000,T,0,M,23.33,N,43.18,K*5f
$GPRMC,121935.000,A,4452.7817,N,00049.5401,W,23.89,298.00,150910,,*20
$GPGGA,121935.000,4452.7817,N,00049.5401,W,1,8,184,110.88,M,110.88,M,,*5b
$GPVTG,0.000,T,0,M,23.89,N,44.22,K*50
$GPRMC,121935.250,A,4452.7827,N,00049.5421,W,23.60,300.40,150910,,*25
$GPGGA,121935.250,4452.7827,N,00049.5421,W,1,8,184,110.99,M,110.99,M,,*5d
$GPVTG,0.000,T,0,M,23.60,N,43.68,K*5e
$GPRMC,121935.500,A,4452.7838,N,00049.5441,W,24.10,302.90,150910,,*20
$GPGGA,121935.500,4452.7838,N,00049.5441,W,1,8,184,111.07,M,111.07,M,,*57
$GPVTG,0.000,T,0,M,24.10,N,44.62,K*53
$GPRMC,121935.750,A,4452.7848,N,00049.5460,W,23.38,305.30,150910,,*23
$GPGGA,121935.750,4452.7848,N,00049.5460,W,1,8,184,111.07,M,111.07,M,,*54
$GPVTG,0.000,T,0,M,23.38,N,43.29,K*56
$GPRMC,121936.000,A,4452.7858,N,00049.5478,W,23.87,307.40,150910,,*2b
$GPGGA,121936.000,4452.7858,N,00049.5478,W,1,8,184,111.13,M,111.13,M,,*5d
$GPVTG,0.000,T,0,M,23.87,N,44.19,K*56
$GPRMC,121936.250,A,4452.7874,N,00049.5495,W,24.24,309.70,150910,,*22
$GPGGA,121936.250,4452.7874,N,00049.5495,W,1,8,184,111.16,M,111.16,M,,*57
$GPVTG,0.000,T,0,M,24.24,N,44.87,K*5f
$GPRMC,121936.500,A,4452.7884,N,00049.5512,W,24.41,312.00,150910,,*2f
$GPGGA,121936.500,4452.7884,N,00049.5512,W,1,8,184,111.08,M,111.08,M,,*54
$GPVTG,0.000,T,0,M,24.41,N,45.19,K*5a
$GPRMC,121936.750,A,4452.7897,N,00049.5529,W,24.61,314.20,150910,,*24
$GPGGA,121936.750,4452.7897,N,00049.5529,W,1,8,184,111.02,M,111.02,M,,*59
$GPVTG,0.000,T,0,M,24.61,N,45.55,K*50
$GPRMC,121937.000,A,4452.7909,N,00049.5544,W,24.76,316.50,150910,,*29
$GPGGA,121937.000,4452.7909,N,00049.5544,W,1,8,184,111.03,M,111.03,M,,*57
$GPVTG,0.000,T,0,M,24.76,N,45.84,K*5a
$GPRMC,121937.250,A,4452.7922,N,00049.5558,W,25.00,318.60,150910,,*27
$GPGGA,121937.250,4452.7922,N,00049.5558,W,1,8,184,111.00,M,111.00,M,,*54
$GPVTG,0.000,T,0,M,25.00,N,46.27,K*50
$GPRMC,121937.500,A,4452.7939,N,00049.5572,W,25.17,321.30,150910,,*2e
$GPGGA,121937.500,4452.7939,N,00049.5572,W,1,8,184,111.05,M,111.05,M,,*54
$GPVTG,0.000,T,0,M,25.17,N,46.60,K*55
$GPRMC,121937.750,A,4452.7954,N,00049.5585,W,25.70,323.70,150910,,*2d
$GPGGA,121937.750,4452.7954,N,00049.5585,W,1,8,184,111.03,M,111.03,M,,*50
$GPVTG,0.000,T,0,M,25.70,N,47.57,K*51
$GPRMC,121938.000,A,4452.7969,N,00049.5598,W,24.98,325.80,150910,,*2c
$GPGGA,121938.000,4452.7969,N,00049.5598,W,1,8,184,111.02,M,111.02,M,,*5f
$GPVTG,0.000,T,0,M,24.98,N,46.24,K*53
$GPRMC,121938.250,A,4452.7986,N,00049.5610,W,25.64,327.70,150910,,*26
$GPGGA,121938.250,4452.7986,N,00049.5610,W,1,8,184,111.08,M,111.08,M,,*5a
$GPVTG,0.000,T,0,M,25.64,N,47.46,K*54
$GPRMC,121938.500,A,4452.8000,N,00049.5621,W,26.03,330.20,150910,,*2f
$GPGGA,121938.500,4452.8000,N,00049.5621,W,1,8,184,111.04,M,111.04,M,,*52
$GPVTG,0.000,T,0,M,26.03,N,48.18,K*52
$GPRMC,121938.750,A,4452.8015,N,00049.5631,W,26.03,332.40,150910,,*29
$GPGGA,121938.750,4452.8015,N,00049.5631,W,1,8,184,111.06,M,111.06,M,,*50
$GPVTG,0.000,T,0,M,26.03,N,48.18,K*52
$GPRMC,121939.000,A,4452.8034,N,00049.5640,W,25.66,334.80,150910,,*25
$GPGGA,121939.000,4452.8034,N,00049.5640,W,1,8,184,111.04,M,111.04,M,,*56
$GPVTG,0.000,T,0,M,25.66,N,47.50,K*51
$GPRMC,121939.250,A,4452.8049,N,00049.5648,W,25.41,336.30,150910,,*2c
$GPGGA,121939.250,4452.8049,N,00049.5648,W,1,8,184,110.97,M,110.97,M,,*53
$GPVTG,0.000,T,0,M,25.41,N,47.03,K*52
$GPRMC,121939.500,A,4452.8066,N,00049.5656,W,26.16,338.50,150910,,*25
$GPGGA,121939.500,4452.8066,N,00049.5656,W,1,8,184,110.82,M,110.82,M,,*53
$GPVTG,0.000,T,0,M,26.16,N,48.43,K*58
$GPRMC,121939.750,A,4452.8081,N,00049.5663,W,25.99,340.30,150910,,*20
$GPGGA,121939.750,4452.8081,N,00049.5663,W,1,8,184,110.64,M,110.64,M,,*5b
$GPVTG,0.000,T,0,M,25.99,N,48.11,K*5b
$GPRMC,121940.000,A,4452.8100,N,00049.5669,W,26.57,342.30,150910,,*2d
$GPGGA,121940.000,4452.8100,N,00049.5669,W,1,8,184,110.35,M,110.35,M,,*55
$GPVTG,0.000,T,0,M,26.57,N,49.19,K*53
$GPRMC,121940.250,A,4452.8116,N,00049.5675,W,27.08,344.30,150910,,*2d
$GPGGA,121940.250,4452.8116,N,00049.5675,W,1,8,184,110.13,M,110.13,M,,*58
$GPVTG,0.000,T,0,M,27.08,N,50.12,K*5b
$GPRMC,121940.500,A,4452.8134,N,00049.5680,W,27.33,346.40,150910,,*28
$GPGGA,121940.500,4452.8134,N,00049.5680,W,1,8,184,109.96,M,109.96,M,,*50
$GPVTG,0.000,T,0,M,27.33,N,50.59,K*5c
$GPRMC,121940.750,A,4452.8153,N,00049.5683,W,27.78,348.10,150910,,*29
$GPGGA,121940.750,4452.8153,N,00049.5683,W,1,8,184,109.84,M,109.84,M,,*55
$GPVTG,0.000,T,0,M,27.78,N,51.42,K*58
$GPRMC,121941.000,A,4452.8172,N,00049.5687,W,28.13,349.80,150910,,*27
$GPGGA,121941.000,4452.8172,N,00049.5687,W,1,8,184,109.68,M,109.68,M,,*51
$GPVTG,0.000,T,0,M,28.13,N,52.07,K*58
$GPRMC,121941.250,A,4452.8191,N,00049.5689,W,28.46,351.30,150910,,*21
$GPGGA,121941.250,4452.8191,N,00049.5689,W,1,8,184,109.49,M,109.49,M,,*55
$GPVTG,0.000,T,0,M,28.46,N,52.68,K*51
$GPRMC,121941.500,A,4452.8210,N,00049.5692,W,28.21,351.40,150910,,*25
$GPGGA,121941.500,4452.8210,N,00049.5692,W,1,8,184,109.29,M,109.29,M,,*57
$GPVTG,0.000,T,0,M,28.21,N,52.21,K*5d
$GPRMC,121941.750,A,4452.8225,N,00049.5698,W,28.46,350.10,150910,,*2b
$GPGGA,121941.750,4452.8225,N,00049.5698,W,1,8,184,109.08,M,109.08,M,,*5c
$GPVTG,0.000,T,0,M,28.46,N,52.68,K*51
$GPRMC,121942.000,A,4452.8244,N,00049.5705,W,28.09,348.10,150910,,*2a
$GPGGA,121942.000,4452.8244,N,00049.5705,W,1,8,184,108.93,M,108.93,M,,*5f
$GPVTG,0.000,T,0,M,28.09,N,52.00,K*54
$GPRMC,121942.250,A,4452.8261,N,00049.5715,W,27.82,344.80,150910,,*22
$GPGGA,121942.250,4452.8261,N,00049.5715,W,1,8,184,108.66,M,108.66,M,,*5e
$GPVTG,0.000,T,0,M,27.82,N,51.49,K*56
$GPRMC,121942.500,A,4452.8276,N,00049.5727,W,27.41,341.10,150910,,*24
$GPGGA,121942.500,4452.8276,N,00049.5727,W,1,8,184,108.40,M,108.40,M,,*5b
$GPVTG,0.000,T,0,M,27.41,N,50.74,K*56
$GPRMC,121942.750,A,4452.8295,N,00049.5740,W,26.65,335.00,150910,,*2a
$GPGGA,121942.750,4452.8295,N,00049.5740,W,1,8,184,108.13,M,108.13,M,,*50
$GPVTG,0.000,T,0,M,26.65,N,49.33,K*5a
$GPRMC,121943.000,A,4452.8310,N,00049.5757,W,26.59,329.70,150910,,*26
$GPGGA,121943.000,4452.8310,N,00049.5757,W,1,8,184,107.93,M,107.93,M,,*59
$GPVTG,0.000,T,0,M,26.59,N,49.22,K*55
$GPRMC,121943.250,A,4452.8323,N,00049.5775,W,26.46,324.50,150910,,*20
$GPGGA,121943.250,4452.8323,N,00049.5775,W,1,8,184,107.75,M,107.75,M,,*5e
$GPVTG,0.000,T,0,M,26.46,N,48.97,K*54
$GPRMC,121943.500,A,4452.8336,N,00049.5797,W,26.34,318.80,150910,,*2d
$GPGGA,121943.500,4452.8336,N,00049.5797,W,1,8,184,107.58,M,107.58,M,,*54
$GPVTG,0.000,T,0,M,26.34,N,48.76,K*5e
$GPRMC,121943.750,A,4452.8344,N,00049.5820,W,26.59,313.30,150910,,*27
$GPGGA,121943.750,4452.8344,N,00049.5820,W,1,8,184,107.41,M,107.41,M,,*55
$GPVTG,0.000,T,0,M,26.59,N,49.22,K*55
$GPRMC,121944.000,A,4452.8350,N,00049.5844,W,26.30,308.90,150910,,*2a
$GPGGA,121944.000,4452.8350,N,00049.5844,W,1,8,184,107.41,M,107.41,M,,*57
$GPVTG,0.000,T,0,M,26.30,N,48.68,K*55
$GPRMC,121944.250,A,4452.8358,N,00049.5867,W,26.59,305.40,150910,,*2b
$GPGGA,121944.250,4452.8358,N,00049.5867,W,1,8,184,107.34,M,107.34,M,,*59
$GPVTG,0.000,T,0,M,26.59,N,49.22,K*55
$GPRMC,121944.500,A,4452.8366,N,00049.5890,W,26.51,302.90,150910,,*2e
$GPGGA,121944.500,4452.8366,N,00049.5890,W,1,8,184,107.26,M,107.26,M,,*5e
$GPVTG,0.000,T,0,M,26.51,N,49.08,K*55
$GPRMC,121944.750,A,4452.8379,N,00049.5911,W,26.79,303.20,150910,,*2f
$GPGGA,121944.750,4452.8379,N,00049.5911,W,1,8,184,107.14,M,107.14,M,,*5f
$GPVTG,0.000,T,0,M,26.79,N,49.58,K*5a
$GPRMC,121945.000,A,4452.8389,N,00049.5931,W,27.33,305.30,150910,,*29
$GPGGA,121945.000,4452.8389,N,00049.5931,W,1,8,184,107.39,M,107.39,M,,*51
$GPVTG,0.000,T,0,M,27.33,N,50.59,K*5c
$GPRMC,121945.250,A,4452.8402,N,00049.5951,W,28.57,308.20,150910,,*2d
$GPGGA,121945.250,4452.8402,N,00049.5951,W,1,8,184,107.41,M,107.41,M,,*54
$GPVTG,0.000,T,0,M,28.57,N,52.89,K*5e
$GPRMC,121945.500,A,4452.8413,N,00049.5969,W,28.92,313.20,150910,,*27
$GPGGA,121945.500,4452.8413,N,00049.5969,W,1,8,184,107.33,M,107.33,M,,*5d
$GPVTG,0.000,T,0,M,28.92,N,53.54,K*56
$GPRMC,121945.750,A,4452.8432,N,00049.5985,W,29.80,318.20,150910,,*28
$GPGGA,121945.750,4452.8432,N,00049.5985,W,1,8,184,107.44,M,107.44,M,,*5b
$GPVTG,0.000,T,0,M,29.80,N,55.16,K*54
$GPRMC,121946.000,A,4452.8450,N,00049.6000,W,30.27,322.60,150910,,*22
$GPGGA,121946.000,4452.8450,N,00049.6000,W,1,8,184,107.48,M,107.48,M,,*59
$GPVTG,0.000,T,0,M,30.27,N,56.03,K*56
$GPRMC,121946.250,A,4452.8469,N,00049.6012,W,30.83,328.90,150910,,*27
$GPGGA,121946.250,4452.8469,N,00049.6012,W,1,8,184,107.49,M,107.49,M,,*57
$GPVTG,0.000,T,0,M,30.83,N,57.07,K*5d
$GPRMC,121946.500,A,4452.8491,N,00049.6022,W,31.82,334.80,150910,,*2d
$GPGGA,121946.500,4452.8491,N,00049.6022,W,1,8,184,107.58,M,107.58,M,,*51
$GPVTG,0.000,T,0,M,31.82,N,58.90,K*5c
$GPRMC,121946.750,A,4452.8510,N,00049.6028,W,32.81,340.40,150910,,*27
$GPGGA,121946.750,4452.8510,N,00049.6028,W,1,8,184,107.72,M,107.72,M,,*54
$GPVTG,0.000,T,0,M,32.81,N,60.74,K*5d
$GPRMC,121947.000,A,4452.8534,N,00049.6030,W,32.99,346.90,150910,,*29
$GPGGA,121947.000,4452.8534,N,00049.6030,W,1,8,184,107.76,M,107.76,M,,*58
$GPVTG,0.000,T,0,M,32.99,N,61.06,K*50
$GPRMC,121947.250,A,4452.8555,N,00049.6029,W,33.57,353.90,150910,,*26
$GPGGA,121947.250,4452.8555,N,00049.6029,W,1,8,184,107.77,M,107.77,M,,*50
$GPVTG,0.000,T,0,M,33.57,N,62.14,K*53
$GPRMC,121947.500,A,4452.8577,N,00049.6023,W,34.44,1.10,150910,,*27
$GPGGA,121947.500,4452.8577,N,00049.6023,W,1,8,184,107.86,M,107.86,M,,*58
$GPVTG,0.000,T,0,M,34.44,N,63.76,K*53
$GPRMC,121947.750,A,4452.8602,N,00049.6013,W,35.73,7.60,150910,,*26
$GPGGA,121947.750,4452.8602,N,00049.6013,W,1,8,184,107.95,M,107.95,M,,*5d
$GPVTG,0.000,T,0,M,35.73,N,66.14,K*57
$GPRMC,121948.000,A,4452.8627,N,00049.6001,W,36.72,12.60,150910,,*19
$GPGGA,121948.000,4452.8627,N,00049.6001,W,1,8,184,108.07,M,108.07,M,,*54
$GPVTG,0.000,T,0,M,36.72,N,67.97,K*5f
$GPRMC,121948.250,A,4452.8646,N,00049.5984,W,37.24,19.00,150910,,*11
$GPGGA,121948.250,4452.8646,N,00049.5984,W,1,8,184,108.26,M,108.26,M,,*53
$GPVTG,0.000,T,0,M,37.24,N,68.94,K*51
$GPRMC,121948.500,A,4452.8666,N,00049.5962,W,38.31,26.10,150910,,*1f
$GPGGA,121948.500,4452.8666,N,00049.5962,W,1,8,184,108.54,M,108.54,M,,*5b
$GPVTG,0.000,T,0,M,38.31,N,70.92,K*55
$GPRMC,121948.750,A,4452.8686,N,00049.5936,W,38.49,34.70,150910,,*1d
$GPGGA,121948.750,4452.8686,N,00049.5936,W,1,8,184,109.12,M,109.12,M,,*53
$GPVTG,0.000,T,0,M,38.49,N,71.25,K*57
$GPRMC,121949.000,A,4452.8701,N,00049.5906,W,38.33,41.90,150910,,*12
$GPGGA,121949.000,4452.8701,N,00049.5906,W,1,8,184,109.83,M,109.83,M,,*5d
$GPVTG,0.000,T,0,M,38.33,N,70.96,K*53
$GPRMC,121949.250,A,4452.8712,N,00049.5873,W,38.72,50.90,150910,,*11
$GPGGA,121949.250,4452.8712,N,00049.5873,W,1,8,184,110.71,M,110.71,M,,*5b
$GPVTG,0.000,T,0,M,38.72,N,71.68,K*56
$GPRMC,121949.500,A,4452.8718,N,00049.5838,W,38.08,62.20,150910,,*11
$GPGGA,121949.500,4452.8718,N,00049.5838,W,1,8,184,111.74,M,111.74,M,,*5c
$GPVTG,0.000,T,0,M,38.08,N,70.49,K*59
$GPRMC,121949.750,A,4452.8728,N,00049.5803,W,37.42,72.90,150910,,*16
$GPGGA,121949.750,4452.8728,N,00049.5803,W,1,8,184,112.80,M,112.80,M,,*50
$GPVTG,0.000,T,0,M,37.42,N,69.27,K*58
$GPRMC,121950.000,A,4452.8729,N,00049.5768,W,35.81,81.80,150910,,*1f
$GPGGA,121950.000,4452.8729,N,00049.5768,W,1,8,184,113.79,M,113.79,M,,*59
$GPVTG,0.000,T,0,M,35.81,N,66.28,K*55
$GPRMC,121950.250,A,4452.8727,N,00049.5735,W,35.86,89.80,150910,,*11
$GPGGA,121950.250,4452.8727,N,00049.5735,W,1,8,184,114.75,M,114.75,M,,*58
$GPVTG,0.000,T,0,M,35.86,N,66.39,K*52
$GPRMC,121950.500,A,4452.8723,N,00049.5701,W,34.83,95.00,150910,,*11
$GPGGA,121950.500,4452.8723,N,00049.5701,W,1,8,184,115.50,M,115.50,M,,*59
$GPVTG,0.000,T,0,M,34.83,N,64.48,K*52
$GPRMC,121950.750,A,4452.8715,N,00049.5671,W,34.37,101.10,150910,,*27
$GPGGA,121950.750,4452.8715,N,00049.5671,W,1,8,184,115.94,M,115.94,M,,*5d
$GPVTG,0.000,T,0,M,34.37,N,63.62,K*52
$GPRMC,121951.000,A,4452.8706,N,00049.5640,W,34.15,106.20,150910,,*20
$GPGGA,121951.000,4452.8706,N,00049.5640,W,1,8,184,116.57,M,116.57,M,,*5e
$GPVTG,0.000,T,0,M,34.15,N,63.22,K*56
$GPRMC,121951.250,A,4452.8698,N,00049.5611,W,33.67,110.00,150910,,*22
$GPGGA,121951.250,4452.8698,N,00049.5611,W,1,8,184,117.07,M,117.07,M,,*5b
$GPVTG,0.000,T,0,M,33.67,N,62.32,K*54
$GPRMC,121951.500,A,4452.8686,N,00049.5584,W,33.76,114.50,150910,,*21
$GPGGA,121951.500,4452.8686,N,00049.5584,W,1,8,184,117.36,M,117.36,M,,*59
$GPVTG,0.000,T,0,M,33.76,N,62.50,K*50
$GPRMC,121951.750,A,4452.8676,N,00049.5556,W,34.19,118.10,150910,,*20
$GPGGA,121951.750,4452.8676,N,00049.5556,W,1,8,184,117.68,M,117.68,M,,*5e
$GPVTG,0.000,T,0,M,34.19,N,63.29,K*51
$GPRMC,121952.000,A,4452.8667,N,00049.5529,W,33.36,120.10,150910,,*28
$GPGGA,121952.000,4452.8667,N,00049.5529,W,1,8,184,117.88,M,117.88,M,,*57
$GPVTG,0.000,T,0,M,33.36,N,61.75,K*50
$GPRMC,121952.250,A,4452.8657,N,00049.5501,W,34.00,121.30,150910,,*27
$GPGGA,121952.250,4452.8657,N,00049.5501,W,1,8,184,117.89,M,117.89,M,,*59
$GPVTG,0.000,T,0,M,34.00,N,62.93,K*59
